{
"type": "FeatureCollection",
"crs": { "type": "name", "properties": { "name": "urn:ogc:def:crs:OGC:1.3:CRS84" } },
                                                                                
"features": [
{ "type": "Feature", "properties": { "gid": 48, "fclass": "restaurant", "name": "Patio" }, "geometry": { "type": "Point", "coordinates": [ 140.098357614613093, 35.599598768602938 ] } },
{ "type": "Feature", "properties": { "gid": 212, "fclass": "restaurant", "name": "しゃぶ葉" }, "geometry": { "type": "Point", "coordinates": [ 139.328031507334344, 35.655101431286596 ] } },
{ "type": "Feature", "properties": { "gid": 541, "fclass": "restaurant", "name": "そば天ぷら　さくらや" }, "geometry": { "type": "Point", "coordinates": [ 139.55354263001135, 35.321764561846877 ] } },
{ "type": "Feature", "properties": { "gid": 1045, "fclass": "restaurant", "name": "正嗣" }, "geometry": { "type": "Point", "coordinates": [ 139.97043205, 36.68045075 ] } },
{ "type": "Feature", "properties": { "gid": 1383, "fclass": "restaurant", "name": "グラッチェガーデンズ" }, "geometry": { "type": "Point", "coordinates": [ 139.395538594299779, 35.62590612784691 ] } },
{ "type": "Feature", "properties": { "gid": 1626, "fclass": "restaurant", "name": "鉢の木(Hachi no ki)" }, "geometry": { "type": "Point", "coordinates": [ 139.553153045757483, 35.330391623586188 ] } },
{ "type": "Feature", "properties": { "gid": 1629, "fclass": "restaurant", "name": "蒲焼 茅木屋" }, "geometry": { "type": "Point", "coordinates": [ 139.552792485378546, 35.320662173046152 ] } },
{ "type": "Feature", "properties": { "gid": 1800, "fclass": "restaurant", "name": "ジョナサン奥戸店" }, "geometry": { "type": "Point", "coordinates": [ 139.855345739362548, 35.736369940862119 ] } },
{ "type": "Feature", "properties": { "gid": 2414, "fclass": "restaurant", "name": "クリスタルパレス・レストラン" }, "geometry": { "type": "Point", "coordinates": [ 139.881035187296277, 35.63362498226941 ] } },
{ "type": "Feature", "properties": { "gid": 2919, "fclass": "restaurant", "name": "レストランしんめい" }, "geometry": { "type": "Point", "coordinates": [ 139.972520350000025, 36.6817145 ] } },
{ "type": "Feature", "properties": { "gid": 2954, "fclass": "restaurant", "name": "レストラン ブルーマリン" }, "geometry": { "type": "Point", "coordinates": [ 139.860359844655648, 35.641860277332093 ] } },
{ "type": "Feature", "properties": { "gid": 2970, "fclass": "restaurant", "name": "箸勝ビル" }, "geometry": { "type": "Point", "coordinates": [ 139.76990425, 35.6999422 ] } },
{ "type": "Feature", "properties": { "gid": 3000, "fclass": "restaurant", "name": "とんでん" }, "geometry": { "type": "Point", "coordinates": [ 139.550330300000013, 35.7556295 ] } },
{ "type": "Feature", "properties": { "gid": 3004, "fclass": "restaurant", "name": "焼肉きんぐ" }, "geometry": { "type": "Point", "coordinates": [ 139.550677917328017, 35.755864497201934 ] } },
{ "type": "Feature", "properties": { "gid": 3173, "fclass": "restaurant", "name": "元気寿司 (Genki Susi)" }, "geometry": { "type": "Point", "coordinates": [ 140.327905235079413, 36.318892154154305 ] } },
{ "type": "Feature", "properties": { "gid": 3176, "fclass": "restaurant", "name": "ちんさんラーメン (Chinsan ramen)" }, "geometry": { "type": "Point", "coordinates": [ 140.328527291365702, 36.320459128619277 ] } },
{ "type": "Feature", "properties": { "gid": 3190, "fclass": "restaurant", "name": "いし橋" }, "geometry": { "type": "Point", "coordinates": [ 139.769885408639396, 35.702812953477711 ] } },
{ "type": "Feature", "properties": { "gid": 3208, "fclass": "restaurant", "name": "すぎのや本陣 (Suginoya Honjin)" }, "geometry": { "type": "Point", "coordinates": [ 140.317133325790962, 35.95757175081804 ] } },
{ "type": "Feature", "properties": { "gid": 3241, "fclass": "restaurant", "name": "がんこ屋らーめん (Gankoya)" }, "geometry": { "type": "Point", "coordinates": [ 140.319539752630533, 35.967934116610422 ] } },
{ "type": "Feature", "properties": { "gid": 3243, "fclass": "restaurant", "name": "ココス" }, "geometry": { "type": "Point", "coordinates": [ 140.321094466265265, 35.967672449103233 ] } },
{ "type": "Feature", "properties": { "gid": 3244, "fclass": "restaurant", "name": "とん膳 (Tonzen)" }, "geometry": { "type": "Point", "coordinates": [ 140.323603251584643, 35.976205059353454 ] } },
{ "type": "Feature", "properties": { "gid": 3361, "fclass": "restaurant", "name": "筑波山ひたち野" }, "geometry": { "type": "Point", "coordinates": [ 140.121789150172958, 36.212531080991127 ] } },
{ "type": "Feature", "properties": { "gid": 3364, "fclass": "restaurant", "name": "筑波山コマ展望台" }, "geometry": { "type": "Point", "coordinates": [ 140.100987200987134, 36.225957462212058 ] } },
{ "type": "Feature", "properties": { "gid": 3385, "fclass": "restaurant", "name": "焼肉屋さかい" }, "geometry": { "type": "Point", "coordinates": [ 140.200039733804431, 35.937676594242788 ] } },
{ "type": "Feature", "properties": { "gid": 3388, "fclass": "restaurant", "name": "ココス" }, "geometry": { "type": "Point", "coordinates": [ 140.198990474315366, 35.938211135755424 ] } },
{ "type": "Feature", "properties": { "gid": 3390, "fclass": "restaurant", "name": "デニーズ" }, "geometry": { "type": "Point", "coordinates": [ 140.202523803574792, 35.935589985032735 ] } },
{ "type": "Feature", "properties": { "gid": 3392, "fclass": "restaurant", "name": "グラッチェ" }, "geometry": { "type": "Point", "coordinates": [ 140.205244070643971, 35.934002222884097 ] } },
{ "type": "Feature", "properties": { "gid": 3393, "fclass": "restaurant", "name": "おたる寿司" }, "geometry": { "type": "Point", "coordinates": [ 140.202000353409403, 35.935156745290328 ] } },
{ "type": "Feature", "properties": { "gid": 3449, "fclass": "restaurant", "name": "かつ太郎 (Katsutaro)" }, "geometry": { "type": "Point", "coordinates": [ 140.175530607319104, 35.911840999269678 ] } },
{ "type": "Feature", "properties": { "gid": 3451, "fclass": "restaurant", "name": null }, "geometry": { "type": "Point", "coordinates": [ 140.181161497326826, 35.91086562460189 ] } },
{ "type": "Feature", "properties": { "gid": 3455, "fclass": "restaurant", "name": null }, "geometry": { "type": "Point", "coordinates": [ 140.181584399353227, 35.910765106845879 ] } },
{ "type": "Feature", "properties": { "gid": 3481, "fclass": "restaurant", "name": "らーめん元気屋 (Genkiya)" }, "geometry": { "type": "Point", "coordinates": [ 140.311674258016808, 36.337032087272931 ] } },
{ "type": "Feature", "properties": { "gid": 3483, "fclass": "restaurant", "name": "小樽寿司 (Otaru Susi)" }, "geometry": { "type": "Point", "coordinates": [ 140.311822604423469, 36.337532518158845 ] } },
{ "type": "Feature", "properties": { "gid": 3508, "fclass": "restaurant", "name": "ガスト" }, "geometry": { "type": "Point", "coordinates": [ 140.414423158869113, 36.362499390830621 ] } },
{ "type": "Feature", "properties": { "gid": 3513, "fclass": "restaurant", "name": "バーミヤン" }, "geometry": { "type": "Point", "coordinates": [ 140.414224210689525, 36.362689039050295 ] } },
{ "type": "Feature", "properties": { "gid": 3520, "fclass": "restaurant", "name": "ばんどう太郎" }, "geometry": { "type": "Point", "coordinates": [ 140.41350158292002, 36.362341424383551 ] } },
{ "type": "Feature", "properties": { "gid": 3522, "fclass": "restaurant", "name": "ラーメン大黒屋 (Ramen Daikokuya)" }, "geometry": { "type": "Point", "coordinates": [ 140.330222657326289, 36.323422454505518 ] } },
{ "type": "Feature", "properties": { "gid": 3526, "fclass": "restaurant", "name": "Red Lobster" }, "geometry": { "type": "Point", "coordinates": [ 140.412936918351392, 36.362906620193606 ] } },
{ "type": "Feature", "properties": { "gid": 3528, "fclass": "restaurant", "name": "大阪王将" }, "geometry": { "type": "Point", "coordinates": [ 140.413810250000012, 36.36202 ] } },
{ "type": "Feature", "properties": { "gid": 3637, "fclass": "restaurant", "name": "レストラン清海 (Restrant Seikai)" }, "geometry": { "type": "Point", "coordinates": [ 140.630898432195437, 36.511283524155303 ] } },
{ "type": "Feature", "properties": { "gid": 3638, "fclass": "restaurant", "name": "ココス" }, "geometry": { "type": "Point", "coordinates": [ 140.629495200733942, 36.516649910522077 ] } },
{ "type": "Feature", "properties": { "gid": 3673, "fclass": "restaurant", "name": "もうもう" }, "geometry": { "type": "Point", "coordinates": [ 140.324160382812011, 35.97667368007302 ] } },
{ "type": "Feature", "properties": { "gid": 3873, "fclass": "restaurant", "name": "待春軒" }, "geometry": { "type": "Point", "coordinates": [ 139.660141767718187, 35.416060120227108 ] } },
{ "type": "Feature", "properties": { "gid": 3971, "fclass": "restaurant", "name": "double 4" }, "geometry": { "type": "Point", "coordinates": [ 139.710675854775758, 35.664304302397639 ] } },
{ "type": "Feature", "properties": { "gid": 4209, "fclass": "restaurant", "name": "ココス" }, "geometry": { "type": "Point", "coordinates": [ 140.289782697284551, 36.190860867955756 ] } },
{ "type": "Feature", "properties": { "gid": 4221, "fclass": "restaurant", "name": "ガスト" }, "geometry": { "type": "Point", "coordinates": [ 140.226278183881902, 36.131599350783063 ] } },
{ "type": "Feature", "properties": { "gid": 4351, "fclass": "restaurant", "name": "ガスト" }, "geometry": { "type": "Point", "coordinates": [ 140.394359700000024, 36.3861477 ] } },
{ "type": "Feature", "properties": { "gid": 4459, "fclass": "restaurant", "name": "バーミヤン" }, "geometry": { "type": "Point", "coordinates": [ 139.443156931111986, 35.471193889839888 ] } },
{ "type": "Feature", "properties": { "gid": 5105, "fclass": "restaurant", "name": "味の民芸" }, "geometry": { "type": "Point", "coordinates": [ 139.614408862926723, 35.635201569044867 ] } },
{ "type": "Feature", "properties": { "gid": 5213, "fclass": "restaurant", "name": "奴寿司 (Yakko Zushi)" }, "geometry": { "type": "Point", "coordinates": [ 139.904887726813683, 35.658632981196874 ] } },
{ "type": "Feature", "properties": { "gid": 5217, "fclass": "restaurant", "name": "安楽亭" }, "geometry": { "type": "Point", "coordinates": [ 139.900557096801919, 35.661669871107833 ] } },
{ "type": "Feature", "properties": { "gid": 5280, "fclass": "restaurant", "name": "ガスト" }, "geometry": { "type": "Point", "coordinates": [ 139.427497214350723, 35.642585331830517 ] } },
{ "type": "Feature", "properties": { "gid": 5293, "fclass": "restaurant", "name": null }, "geometry": { "type": "Point", "coordinates": [ 139.870295142872521, 35.785424823524643 ] } },
{ "type": "Feature", "properties": { "gid": 5429, "fclass": "restaurant", "name": "橡庵" }, "geometry": { "type": "Point", "coordinates": [ 139.310645020985476, 35.855655592547272 ] } },
{ "type": "Feature", "properties": { "gid": 5450, "fclass": "restaurant", "name": "華屋与兵衛 (HANAYA YOHEI)" }, "geometry": { "type": "Point", "coordinates": [ 139.618815431249715, 35.690037631456541 ] } },
{ "type": "Feature", "properties": { "gid": 5455, "fclass": "restaurant", "name": "デニーズ" }, "geometry": { "type": "Point", "coordinates": [ 139.618170208351813, 35.688249392559186 ] } },
{ "type": "Feature", "properties": { "gid": 5457, "fclass": "restaurant", "name": null }, "geometry": { "type": "Point", "coordinates": [ 139.618098947313626, 35.688255795220876 ] } },
{ "type": "Feature", "properties": { "gid": 5563, "fclass": "restaurant", "name": "つけ麺大臣渋谷店" }, "geometry": { "type": "Point", "coordinates": [ 139.70522915383512, 35.656620223229602 ] } },
{ "type": "Feature", "properties": { "gid": 5564, "fclass": "restaurant", "name": "はなまるうどん明治通り" }, "geometry": { "type": "Point", "coordinates": [ 139.704635686969254, 35.657203779021067 ] } },
{ "type": "Feature", "properties": { "gid": 5623, "fclass": "restaurant", "name": "木曽路" }, "geometry": { "type": "Point", "coordinates": [ 139.685954067479685, 35.712146273744395 ] } },
{ "type": "Feature", "properties": { "gid": 5624, "fclass": "restaurant", "name": "浅野屋" }, "geometry": { "type": "Point", "coordinates": [ 139.684181539344337, 35.71253930969435 ] } },
{ "type": "Feature", "properties": { "gid": 5687, "fclass": "restaurant", "name": "デニーズ" }, "geometry": { "type": "Point", "coordinates": [ 140.494114535210883, 35.899939283148548 ] } },
{ "type": "Feature", "properties": { "gid": 5690, "fclass": "restaurant", "name": "ココス" }, "geometry": { "type": "Point", "coordinates": [ 140.489698050000015, 35.9010041 ] } },
{ "type": "Feature", "properties": { "gid": 5870, "fclass": "restaurant", "name": "井ろは" }, "geometry": { "type": "Point", "coordinates": [ 139.415326047304603, 35.462754401621872 ] } },
{ "type": "Feature", "properties": { "gid": 5887, "fclass": "restaurant", "name": "リンガーハット" }, "geometry": { "type": "Point", "coordinates": [ 139.428275057731611, 35.437124822003184 ] } },
{ "type": "Feature", "properties": { "gid": 5895, "fclass": "restaurant", "name": null }, "geometry": { "type": "Point", "coordinates": [ 139.427688082193072, 35.437710449034427 ] } },
{ "type": "Feature", "properties": { "gid": 5934, "fclass": "restaurant", "name": "（そば）" }, "geometry": { "type": "Point", "coordinates": [ 139.718304171140403, 35.548713923462032 ] } },
{ "type": "Feature", "properties": { "gid": 5957, "fclass": "restaurant", "name": "ビッグボーイ (Big Boy)" }, "geometry": { "type": "Point", "coordinates": [ 139.407495157805954, 35.818347481632728 ] } },
{ "type": "Feature", "properties": { "gid": 6089, "fclass": "restaurant", "name": "菊華荘" }, "geometry": { "type": "Point", "coordinates": [ 139.058448585357439, 35.24515249596093 ] } },
{ "type": "Feature", "properties": { "gid": 6136, "fclass": "restaurant", "name": "入間下藤沢食堂" }, "geometry": { "type": "Point", "coordinates": [ 139.406989851634279, 35.817369292471064 ] } },
{ "type": "Feature", "properties": { "gid": 6280, "fclass": "restaurant", "name": "丸五" }, "geometry": { "type": "Point", "coordinates": [ 139.769714495690124, 35.699138126837546 ] } },
{ "type": "Feature", "properties": { "gid": 6356, "fclass": "restaurant", "name": "はなまるうどん渋谷駅西口店" }, "geometry": { "type": "Point", "coordinates": [ 139.700111465984605, 35.658071649513708 ] } },
{ "type": "Feature", "properties": { "gid": 6357, "fclass": "restaurant", "name": "魚ゆう" }, "geometry": { "type": "Point", "coordinates": [ 139.69187285000001, 35.658125 ] } },
{ "type": "Feature", "properties": { "gid": 6368, "fclass": "restaurant", "name": "第二英鮨" }, "geometry": { "type": "Point", "coordinates": [ 139.69823155, 35.6585585 ] } },
{ "type": "Feature", "properties": { "gid": 6369, "fclass": "restaurant", "name": "小麦房" }, "geometry": { "type": "Point", "coordinates": [ 139.69765050482664, 35.658655771583298 ] } },
{ "type": "Feature", "properties": { "gid": 6375, "fclass": "restaurant", "name": "豚丸" }, "geometry": { "type": "Point", "coordinates": [ 139.697075308945898, 35.658795866333556 ] } },
{ "type": "Feature", "properties": { "gid": 6377, "fclass": "restaurant", "name": "麺屋武蔵 無骨外電" }, "geometry": { "type": "Point", "coordinates": [ 139.698271582766296, 35.658624840937193 ] } },
{ "type": "Feature", "properties": { "gid": 6381, "fclass": "restaurant", "name": "SHANTI" }, "geometry": { "type": "Point", "coordinates": [ 139.697516292028183, 35.658537965279123 ] } },
{ "type": "Feature", "properties": { "gid": 6382, "fclass": "restaurant", "name": "元祖うな鐡" }, "geometry": { "type": "Point", "coordinates": [ 139.698382414593738, 35.658444018569519 ] } },
{ "type": "Feature", "properties": { "gid": 6383, "fclass": "restaurant", "name": "Galettoria" }, "geometry": { "type": "Point", "coordinates": [ 139.693856063433316, 35.659249160406638 ] } },
{ "type": "Feature", "properties": { "gid": 6388, "fclass": "restaurant", "name": "渋谷　焼肉　金剛園" }, "geometry": { "type": "Point", "coordinates": [ 139.696687376578382, 35.660288719076647 ] } },
{ "type": "Feature", "properties": { "gid": 6407, "fclass": "restaurant", "name": "まーさん ハンバーグ" }, "geometry": { "type": "Point", "coordinates": [ 139.698146749999978, 35.6606586 ] } },
{ "type": "Feature", "properties": { "gid": 6411, "fclass": "restaurant", "name": "ASSAI" }, "geometry": { "type": "Point", "coordinates": [ 139.691857149999976, 35.65850725 ] } },
{ "type": "Feature", "properties": { "gid": 6481, "fclass": "restaurant", "name": "すぎのや (Suginoya)" }, "geometry": { "type": "Point", "coordinates": [ 140.084225646728555, 36.136712002569702 ] } },
{ "type": "Feature", "properties": { "gid": 6484, "fclass": "restaurant", "name": null }, "geometry": { "type": "Point", "coordinates": [ 140.08294665, 36.1382024 ] } },
{ "type": "Feature", "properties": { "gid": 6486, "fclass": "restaurant", "name": "ミラ (MIRA)" }, "geometry": { "type": "Point", "coordinates": [ 140.082702997084084, 36.134651662421369 ] } },
{ "type": "Feature", "properties": { "gid": 6489, "fclass": "restaurant", "name": "牛角" }, "geometry": { "type": "Point", "coordinates": [ 140.079143269411901, 36.135817891193668 ] } },
{ "type": "Feature", "properties": { "gid": 6497, "fclass": "restaurant", "name": "Green Lounge" }, "geometry": { "type": "Point", "coordinates": [ 139.69934177688674, 35.664153253260288 ] } },
{ "type": "Feature", "properties": { "gid": 6546, "fclass": "restaurant", "name": "Eggs N' Things" }, "geometry": { "type": "Point", "coordinates": [ 139.70623895, 35.66859435 ] } },
{ "type": "Feature", "properties": { "gid": 6560, "fclass": "restaurant", "name": "ごはん屋佐原食堂" }, "geometry": { "type": "Point", "coordinates": [ 140.484514566568436, 35.891260426104843 ] } },
{ "type": "Feature", "properties": { "gid": 6683, "fclass": "restaurant", "name": "牛かつ　もとむら　渋谷店" }, "geometry": { "type": "Point", "coordinates": [ 139.70401775, 35.6569779 ] } },
{ "type": "Feature", "properties": { "gid": 6684, "fclass": "restaurant", "name": "はし田屋" }, "geometry": { "type": "Point", "coordinates": [ 139.705792704922658, 35.655694714183113 ] } },
{ "type": "Feature", "properties": { "gid": 6686, "fclass": "restaurant", "name": "富士そば" }, "geometry": { "type": "Point", "coordinates": [ 139.70343265, 35.65749285 ] } },
{ "type": "Feature", "properties": { "gid": 6705, "fclass": "restaurant", "name": "デニーズ" }, "geometry": { "type": "Point", "coordinates": [ 139.694248919156109, 35.653417792012796 ] } },
{ "type": "Feature", "properties": { "gid": 6737, "fclass": "restaurant", "name": "山本のハンバーグ渋谷食堂" }, "geometry": { "type": "Point", "coordinates": [ 139.704823057596911, 35.657590476148144 ] } },
{ "type": "Feature", "properties": { "gid": 6794, "fclass": "restaurant", "name": "ジョナサン" }, "geometry": { "type": "Point", "coordinates": [ 139.615878384861333, 35.719364974571384 ] } },
{ "type": "Feature", "properties": { "gid": 6807, "fclass": "restaurant", "name": "Reg-On-Diner" }, "geometry": { "type": "Point", "coordinates": [ 139.70987515380952, 35.655551065450339 ] } },
{ "type": "Feature", "properties": { "gid": 6879, "fclass": "restaurant", "name": "中華ダイニング彩華" }, "geometry": { "type": "Point", "coordinates": [ 140.491280216660869, 35.898627649728155 ] } },
{ "type": "Feature", "properties": { "gid": 6881, "fclass": "restaurant", "name": "寿司割烹大黒" }, "geometry": { "type": "Point", "coordinates": [ 140.4974029, 35.89657175 ] } },
{ "type": "Feature", "properties": { "gid": 6887, "fclass": "restaurant", "name": "春木屋" }, "geometry": { "type": "Point", "coordinates": [ 140.494872440542281, 35.898344330001606 ] } },
{ "type": "Feature", "properties": { "gid": 6890, "fclass": "restaurant", "name": "ガスト" }, "geometry": { "type": "Point", "coordinates": [ 140.495052432612169, 35.899026931147063 ] } },
{ "type": "Feature", "properties": { "gid": 6920, "fclass": "restaurant", "name": null }, "geometry": { "type": "Point", "coordinates": [ 139.74743508919417, 35.699939296020077 ] } },
{ "type": "Feature", "properties": { "gid": 6974, "fclass": "restaurant", "name": null }, "geometry": { "type": "Point", "coordinates": [ 139.440268088851667, 35.469776146597468 ] } },
{ "type": "Feature", "properties": { "gid": 7013, "fclass": "restaurant", "name": "ふくでん" }, "geometry": { "type": "Point", "coordinates": [ 139.735958, 35.6803288 ] } },
{ "type": "Feature", "properties": { "gid": 7026, "fclass": "restaurant", "name": "精養軒" }, "geometry": { "type": "Point", "coordinates": [ 139.772111966790192, 35.714306284518258 ] } },
{ "type": "Feature", "properties": { "gid": 7094, "fclass": "restaurant", "name": "日高屋" }, "geometry": { "type": "Point", "coordinates": [ 140.020546153191731, 35.690776244578203 ] } },
{ "type": "Feature", "properties": { "gid": 7103, "fclass": "restaurant", "name": "AJIYOSHI 1954" }, "geometry": { "type": "Point", "coordinates": [ 139.735617145630357, 35.676196768976027 ] } },
{ "type": "Feature", "properties": { "gid": 7146, "fclass": "restaurant", "name": "室町砂場" }, "geometry": { "type": "Point", "coordinates": [ 139.73617472828451, 35.671151667181022 ] } },
{ "type": "Feature", "properties": { "gid": 7184, "fclass": "restaurant", "name": "ASTRANCE" }, "geometry": { "type": "Point", "coordinates": [ 139.726453264776779, 35.662418196158711 ] } },
{ "type": "Feature", "properties": { "gid": 7416, "fclass": "restaurant", "name": "ドルフィン (Dolphin)" }, "geometry": { "type": "Point", "coordinates": [ 139.637153839381483, 35.419823358939603 ] } },
{ "type": "Feature", "properties": { "gid": 7461, "fclass": "restaurant", "name": "木曽路" }, "geometry": { "type": "Point", "coordinates": [ 139.545106122697291, 35.681480052219769 ] } },
{ "type": "Feature", "properties": { "gid": 7523, "fclass": "restaurant", "name": "Sun-mi" }, "geometry": { "type": "Point", "coordinates": [ 139.760955613916337, 35.671171890229864 ] } },
{ "type": "Feature", "properties": { "gid": 7571, "fclass": "restaurant", "name": "レストランゆりのき" }, "geometry": { "type": "Point", "coordinates": [ 139.708113907474484, 35.686726805922945 ] } },
{ "type": "Feature", "properties": { "gid": 7685, "fclass": "restaurant", "name": "いせ源" }, "geometry": { "type": "Point", "coordinates": [ 139.769188875539584, 35.696548651879915 ] } },
{ "type": "Feature", "properties": { "gid": 7984, "fclass": "restaurant", "name": "根岸屋" }, "geometry": { "type": "Point", "coordinates": [ 139.27027483197827, 35.789493960936227 ] } },
{ "type": "Feature", "properties": { "gid": 8117, "fclass": "restaurant", "name": "岩井屋" }, "geometry": { "type": "Point", "coordinates": [ 139.294961593151868, 35.96452000241694 ] } },
{ "type": "Feature", "properties": { "gid": 8302, "fclass": "restaurant", "name": null }, "geometry": { "type": "Point", "coordinates": [ 139.498522900000012, 35.52499085 ] } },
{ "type": "Feature", "properties": { "gid": 8303, "fclass": "restaurant", "name": "道とん堀 長津田店" }, "geometry": { "type": "Point", "coordinates": [ 139.498486074007786, 35.525326758788118 ] } },
{ "type": "Feature", "properties": { "gid": 8317, "fclass": "restaurant", "name": "七輪房 (Shichirinbo)" }, "geometry": { "type": "Point", "coordinates": [ 139.654347073091429, 36.010449153990692 ] } },
{ "type": "Feature", "properties": { "gid": 8319, "fclass": "restaurant", "name": "ココス" }, "geometry": { "type": "Point", "coordinates": [ 139.653216277053815, 36.019670146128135 ] } },
{ "type": "Feature", "properties": { "gid": 8322, "fclass": "restaurant", "name": "丸亀製麺" }, "geometry": { "type": "Point", "coordinates": [ 139.652943422423704, 36.021894612413767 ] } },
{ "type": "Feature", "properties": { "gid": 8324, "fclass": "restaurant", "name": "華屋与兵衛 白岡店" }, "geometry": { "type": "Point", "coordinates": [ 139.652999498022524, 36.021564743102516 ] } },
{ "type": "Feature", "properties": { "gid": 8338, "fclass": "restaurant", "name": "十文字" }, "geometry": { "type": "Point", "coordinates": [ 139.716862526023334, 35.709458067691202 ] } },
{ "type": "Feature", "properties": { "gid": 8343, "fclass": "restaurant", "name": null }, "geometry": { "type": "Point", "coordinates": [ 140.175973226446928, 36.03950432441404 ] } },
{ "type": "Feature", "properties": { "gid": 8456, "fclass": "restaurant", "name": "お好み焼道頓堀 (Okonomiyaki-Doutonbori)" }, "geometry": { "type": "Point", "coordinates": [ 139.655043450000051, 36.0015375 ] } },
{ "type": "Feature", "properties": { "gid": 8494, "fclass": "restaurant", "name": "デニーズ" }, "geometry": { "type": "Point", "coordinates": [ 139.655035323131386, 36.005845856517631 ] } },
{ "type": "Feature", "properties": { "gid": 8495, "fclass": "restaurant", "name": "和風レストランとんでん (Tonden)" }, "geometry": { "type": "Point", "coordinates": [ 139.65455075, 36.0050228 ] } },
{ "type": "Feature", "properties": { "gid": 8496, "fclass": "restaurant", "name": "安楽亭" }, "geometry": { "type": "Point", "coordinates": [ 139.654691900000017, 36.0045888 ] } },
{ "type": "Feature", "properties": { "gid": 8509, "fclass": "restaurant", "name": "ポパイラーメン 蓮田店" }, "geometry": { "type": "Point", "coordinates": [ 139.6484888, 36.00088465 ] } },
{ "type": "Feature", "properties": { "gid": 8516, "fclass": "restaurant", "name": "はいから亭 (Haikaratei)" }, "geometry": { "type": "Point", "coordinates": [ 139.65268935, 36.0203475 ] } },
{ "type": "Feature", "properties": { "gid": 8517, "fclass": "restaurant", "name": "もちもちの木 (Motimotinoki)" }, "geometry": { "type": "Point", "coordinates": [ 139.653063023129675, 36.016624110742306 ] } },
{ "type": "Feature", "properties": { "gid": 8518, "fclass": "restaurant", "name": "ガスト" }, "geometry": { "type": "Point", "coordinates": [ 139.653254476536404, 36.015739094020326 ] } },
{ "type": "Feature", "properties": { "gid": 8548, "fclass": "restaurant", "name": "華屋与兵衞 相模原店" }, "geometry": { "type": "Point", "coordinates": [ 139.37508340700623, 35.567372122579435 ] } },
{ "type": "Feature", "properties": { "gid": 8569, "fclass": "restaurant", "name": "サイゼリヤ" }, "geometry": { "type": "Point", "coordinates": [ 139.363635160303971, 35.577475916804254 ] } },
{ "type": "Feature", "properties": { "gid": 8617, "fclass": "restaurant", "name": "ひびき庵" }, "geometry": { "type": "Point", "coordinates": [ 139.644703091682601, 35.783341156822836 ] } },
{ "type": "Feature", "properties": { "gid": 8794, "fclass": "restaurant", "name": "井仲居" }, "geometry": { "type": "Point", "coordinates": [ 139.302483071253874, 35.801750914161758 ] } },
{ "type": "Feature", "properties": { "gid": 8805, "fclass": "restaurant", "name": "紅牛" }, "geometry": { "type": "Point", "coordinates": [ 139.388056947300782, 35.856206064962819 ] } },
{ "type": "Feature", "properties": { "gid": 8806, "fclass": "restaurant", "name": "千吉" }, "geometry": { "type": "Point", "coordinates": [ 139.813162590112, 35.695713112091596 ] } },
{ "type": "Feature", "properties": { "gid": 8886, "fclass": "restaurant", "name": "ビリー・ザ・キッド" }, "geometry": { "type": "Point", "coordinates": [ 139.812267934799024, 35.695903414203187 ] } },
{ "type": "Feature", "properties": { "gid": 8887, "fclass": "restaurant", "name": null }, "geometry": { "type": "Point", "coordinates": [ 139.812197766852734, 35.695671222960868 ] } },
{ "type": "Feature", "properties": { "gid": 8888, "fclass": "restaurant", "name": "家家家" }, "geometry": { "type": "Point", "coordinates": [ 139.812154316149247, 35.695670174501153 ] } },
{ "type": "Feature", "properties": { "gid": 8889, "fclass": "restaurant", "name": "ヨシベー" }, "geometry": { "type": "Point", "coordinates": [ 139.812249138080432, 35.695674878442482 ] } },
{ "type": "Feature", "properties": { "gid": 8890, "fclass": "restaurant", "name": "ハッスルラーメン" }, "geometry": { "type": "Point", "coordinates": [ 139.812340207157177, 35.69568044932462 ] } },
{ "type": "Feature", "properties": { "gid": 8916, "fclass": "restaurant", "name": null }, "geometry": { "type": "Point", "coordinates": [ 139.72862835, 35.6857222 ] } },
{ "type": "Feature", "properties": { "gid": 8943, "fclass": "restaurant", "name": "バーミヤン" }, "geometry": { "type": "Point", "coordinates": [ 139.349949552398954, 35.767578063941357 ] } },
{ "type": "Feature", "properties": { "gid": 8944, "fclass": "restaurant", "name": "デニーズ" }, "geometry": { "type": "Point", "coordinates": [ 139.353866424518344, 35.76554548761144 ] } },
{ "type": "Feature", "properties": { "gid": 8958, "fclass": "restaurant", "name": "サイゼリヤ" }, "geometry": { "type": "Point", "coordinates": [ 140.139651300000025, 35.57660465 ] } },
{ "type": "Feature", "properties": { "gid": 8968, "fclass": "restaurant", "name": "横濱屋 (Yokohamaya)" }, "geometry": { "type": "Point", "coordinates": [ 139.360497323150156, 35.57491902687795 ] } },
{ "type": "Feature", "properties": { "gid": 8991, "fclass": "restaurant", "name": "サイゼリヤ" }, "geometry": { "type": "Point", "coordinates": [ 139.635106216910089, 35.86158753738848 ] } },
{ "type": "Feature", "properties": { "gid": 9071, "fclass": "restaurant", "name": "レストラン&パーラー スバル" }, "geometry": { "type": "Point", "coordinates": [ 139.930420306600297, 35.835214144926837 ] } },
{ "type": "Feature", "properties": { "gid": 9072, "fclass": "restaurant", "name": "割烹 やまのて" }, "geometry": { "type": "Point", "coordinates": [ 139.930831919869604, 35.833628745866797 ] } },
{ "type": "Feature", "properties": { "gid": 9077, "fclass": "restaurant", "name": "ブロンコビリー" }, "geometry": { "type": "Point", "coordinates": [ 139.368751891611481, 35.575051638994658 ] } },
{ "type": "Feature", "properties": { "gid": 9078, "fclass": "restaurant", "name": "壱角家(ikkakuya)" }, "geometry": { "type": "Point", "coordinates": [ 139.372158864737258, 35.579280503587448 ] } },
{ "type": "Feature", "properties": { "gid": 9095, "fclass": "restaurant", "name": "ガスト" }, "geometry": { "type": "Point", "coordinates": [ 139.740633866351061, 35.548942239024065 ] } },
{ "type": "Feature", "properties": { "gid": 9157, "fclass": "restaurant", "name": "大門" }, "geometry": { "type": "Point", "coordinates": [ 139.930855, 35.83707985 ] } },
{ "type": "Feature", "properties": { "gid": 9158, "fclass": "restaurant", "name": null }, "geometry": { "type": "Point", "coordinates": [ 139.930422850000014, 35.8358727 ] } },
{ "type": "Feature", "properties": { "gid": 9167, "fclass": "restaurant", "name": "草木庵" }, "geometry": { "type": "Point", "coordinates": [ 139.930388973492541, 35.837229266457868 ] } },
{ "type": "Feature", "properties": { "gid": 9436, "fclass": "restaurant", "name": "Sushisho" }, "geometry": { "type": "Point", "coordinates": [ 139.72829955, 35.68559285 ] } },
{ "type": "Feature", "properties": { "gid": 9567, "fclass": "restaurant", "name": "ちゃんこ 一の谷" }, "geometry": { "type": "Point", "coordinates": [ 139.768972941736848, 35.702251677405258 ] } },
{ "type": "Feature", "properties": { "gid": 9953, "fclass": "restaurant", "name": "げんこつ" }, "geometry": { "type": "Point", "coordinates": [ 140.027376899999979, 36.96586765 ] } },
{ "type": "Feature", "properties": { "gid": 9954, "fclass": "restaurant", "name": "蔵鋤" }, "geometry": { "type": "Point", "coordinates": [ 140.028435405320238, 36.965945101019514 ] } },
{ "type": "Feature", "properties": { "gid": 10084, "fclass": "restaurant", "name": "バーミヤン" }, "geometry": { "type": "Point", "coordinates": [ 139.362620660413796, 35.840236583290377 ] } },
{ "type": "Feature", "properties": { "gid": 10330, "fclass": "restaurant", "name": "ガスト" }, "geometry": { "type": "Point", "coordinates": [ 139.5444646, 36.16420905 ] } },
{ "type": "Feature", "properties": { "gid": 10331, "fclass": "restaurant", "name": "バーミヤン" }, "geometry": { "type": "Point", "coordinates": [ 139.544722583126344, 36.1649467987626 ] } },
{ "type": "Feature", "properties": { "gid": 10369, "fclass": "restaurant", "name": "ORTON" }, "geometry": { "type": "Point", "coordinates": [ 139.524109035071035, 36.172860552007386 ] } },
{ "type": "Feature", "properties": { "gid": 10459, "fclass": "restaurant", "name": "江戸川台食堂" }, "geometry": { "type": "Point", "coordinates": [ 139.902260160675866, 35.897440164203616 ] } },
{ "type": "Feature", "properties": { "gid": 10548, "fclass": "restaurant", "name": null }, "geometry": { "type": "Point", "coordinates": [ 139.523752049030662, 35.660420292857985 ] } },
{ "type": "Feature", "properties": { "gid": 10717, "fclass": "restaurant", "name": "常勝軒" }, "geometry": { "type": "Point", "coordinates": [ 140.16161445, 35.5542061 ] } },
{ "type": "Feature", "properties": { "gid": 10718, "fclass": "restaurant", "name": "ロイヤルインドレストラン" }, "geometry": { "type": "Point", "coordinates": [ 140.161659857210395, 35.554084078687339 ] } },
{ "type": "Feature", "properties": { "gid": 10801, "fclass": "restaurant", "name": "Kurachi" }, "geometry": { "type": "Point", "coordinates": [ 139.713456937441634, 35.697447702754125 ] } },
{ "type": "Feature", "properties": { "gid": 10802, "fclass": "restaurant", "name": "ココス" }, "geometry": { "type": "Point", "coordinates": [ 139.738255474607826, 36.228582430659266 ] } },
{ "type": "Feature", "properties": { "gid": 10827, "fclass": "restaurant", "name": "サイゼリヤ" }, "geometry": { "type": "Point", "coordinates": [ 139.490191494442172, 35.640569133469107 ] } },
{ "type": "Feature", "properties": { "gid": 11134, "fclass": "restaurant", "name": "日高屋" }, "geometry": { "type": "Point", "coordinates": [ 139.813744977095837, 35.697953728024274 ] } },
{ "type": "Feature", "properties": { "gid": 11216, "fclass": "restaurant", "name": "一徳鮨" }, "geometry": { "type": "Point", "coordinates": [ 139.772171387709903, 35.708390073684868 ] } },
{ "type": "Feature", "properties": { "gid": 11283, "fclass": "restaurant", "name": "はし臓" }, "geometry": { "type": "Point", "coordinates": [ 139.813017577270159, 35.697918525487204 ] } },
{ "type": "Feature", "properties": { "gid": 11285, "fclass": "restaurant", "name": "七菜矢" }, "geometry": { "type": "Point", "coordinates": [ 139.811799494189216, 35.695660442063193 ] } },
{ "type": "Feature", "properties": { "gid": 11290, "fclass": "restaurant", "name": "山岡家" }, "geometry": { "type": "Point", "coordinates": [ 139.8172145, 35.8841244 ] } },
{ "type": "Feature", "properties": { "gid": 11292, "fclass": "restaurant", "name": "はなまるうどん" }, "geometry": { "type": "Point", "coordinates": [ 139.81673025, 35.8840756 ] } },
{ "type": "Feature", "properties": { "gid": 11333, "fclass": "restaurant", "name": "コート・ド・ルージュターブル" }, "geometry": { "type": "Point", "coordinates": [ 139.628482099372405, 35.612096885914355 ] } },
{ "type": "Feature", "properties": { "gid": 11378, "fclass": "restaurant", "name": "デニーズ" }, "geometry": { "type": "Point", "coordinates": [ 139.39482866248045, 35.451609459232508 ] } },
{ "type": "Feature", "properties": { "gid": 11446, "fclass": "restaurant", "name": "ピアンタ" }, "geometry": { "type": "Point", "coordinates": [ 139.759185333351752, 35.70545086673755 ] } },
{ "type": "Feature", "properties": { "gid": 11503, "fclass": "restaurant", "name": "天下一品" }, "geometry": { "type": "Point", "coordinates": [ 139.625591350489742, 35.905979267868986 ] } },
{ "type": "Feature", "properties": { "gid": 11508, "fclass": "restaurant", "name": "熱烈中華食堂 日高屋" }, "geometry": { "type": "Point", "coordinates": [ 139.6279527, 35.90672945 ] } },
{ "type": "Feature", "properties": { "gid": 11515, "fclass": "restaurant", "name": "不二家レストラン" }, "geometry": { "type": "Point", "coordinates": [ 139.642751830691054, 35.89280865572141 ] } },
{ "type": "Feature", "properties": { "gid": 11530, "fclass": "restaurant", "name": "リンガーハット" }, "geometry": { "type": "Point", "coordinates": [ 139.467244423140784, 35.61955899171857 ] } },
{ "type": "Feature", "properties": { "gid": 11531, "fclass": "restaurant", "name": "華屋与兵衛" }, "geometry": { "type": "Point", "coordinates": [ 139.467458260111215, 35.619559272447233 ] } },
{ "type": "Feature", "properties": { "gid": 11672, "fclass": "restaurant", "name": "そば処 更科甚五郎" }, "geometry": { "type": "Point", "coordinates": [ 139.447168606769935, 35.69309667350602 ] } },
{ "type": "Feature", "properties": { "gid": 11692, "fclass": "restaurant", "name": "浅草　鉄板太郎" }, "geometry": { "type": "Point", "coordinates": [ 139.791848039022625, 35.716986795309033 ] } },
{ "type": "Feature", "properties": { "gid": 11701, "fclass": "restaurant", "name": "花ぶさ" }, "geometry": { "type": "Point", "coordinates": [ 139.771382497267496, 35.704306370226384 ] } },
{ "type": "Feature", "properties": { "gid": 11786, "fclass": "restaurant", "name": "うなぎ久保田" }, "geometry": { "type": "Point", "coordinates": [ 139.772938996380503, 35.703650994091902 ] } },
{ "type": "Feature", "properties": { "gid": 11840, "fclass": "restaurant", "name": "ごっち" }, "geometry": { "type": "Point", "coordinates": [ 139.753925784479293, 35.699034067823483 ] } },
{ "type": "Feature", "properties": { "gid": 11907, "fclass": "restaurant", "name": "やよい軒巣鴨駅南口店" }, "geometry": { "type": "Point", "coordinates": [ 139.740216268491736, 35.733028613366372 ] } },
{ "type": "Feature", "properties": { "gid": 12134, "fclass": "restaurant", "name": "濵かつ" }, "geometry": { "type": "Point", "coordinates": [ 139.522174650000011, 35.71287265 ] } },
{ "type": "Feature", "properties": { "gid": 12362, "fclass": "restaurant", "name": "Ramen" }, "geometry": { "type": "Point", "coordinates": [ 139.702106848937916, 35.806001152337601 ] } },
{ "type": "Feature", "properties": { "gid": 12490, "fclass": "restaurant", "name": "如家飯店" }, "geometry": { "type": "Point", "coordinates": [ 139.719617576575871, 35.547529313407381 ] } },
{ "type": "Feature", "properties": { "gid": 12494, "fclass": "restaurant", "name": "源八（うなぎ）" }, "geometry": { "type": "Point", "coordinates": [ 139.721348179876031, 35.546321598023475 ] } },
{ "type": "Feature", "properties": { "gid": 12579, "fclass": "restaurant", "name": "そば処 白川郷" }, "geometry": { "type": "Point", "coordinates": [ 139.560587504432704, 35.609262058585792 ] } },
{ "type": "Feature", "properties": { "gid": 12600, "fclass": "restaurant", "name": "木曽路" }, "geometry": { "type": "Point", "coordinates": [ 139.365727246509664, 35.665878063504643 ] } },
{ "type": "Feature", "properties": { "gid": 12647, "fclass": "restaurant", "name": "ガスト" }, "geometry": { "type": "Point", "coordinates": [ 139.659415524775113, 35.549721057603996 ] } },
{ "type": "Feature", "properties": { "gid": 12802, "fclass": "restaurant", "name": "デニーズ" }, "geometry": { "type": "Point", "coordinates": [ 139.518681648978145, 35.405949321594498 ] } },
{ "type": "Feature", "properties": { "gid": 12857, "fclass": "restaurant", "name": "酔東坡 高倉店" }, "geometry": { "type": "Point", "coordinates": [ 139.367583259558273, 35.665611688475543 ] } },
{ "type": "Feature", "properties": { "gid": 12878, "fclass": "restaurant", "name": "すぎのや本陣 (Suginoya)" }, "geometry": { "type": "Point", "coordinates": [ 139.912092915926905, 36.593282315209066 ] } },
{ "type": "Feature", "properties": { "gid": 12879, "fclass": "restaurant", "name": "まいどおおきに" }, "geometry": { "type": "Point", "coordinates": [ 139.911333050122778, 36.593416156754536 ] } },
{ "type": "Feature", "properties": { "gid": 12897, "fclass": "restaurant", "name": "玉鮨" }, "geometry": { "type": "Point", "coordinates": [ 139.529765764706326, 36.158766262434639 ] } },
{ "type": "Feature", "properties": { "gid": 12898, "fclass": "restaurant", "name": "長寿庵" }, "geometry": { "type": "Point", "coordinates": [ 139.532191727875301, 36.157671117179497 ] } },
{ "type": "Feature", "properties": { "gid": 12972, "fclass": "restaurant", "name": "ドトールコーヒー" }, "geometry": { "type": "Point", "coordinates": [ 139.646085586369054, 35.55342413250132 ] } },
{ "type": "Feature", "properties": { "gid": 12973, "fclass": "restaurant", "name": "天丼てんや日吉店" }, "geometry": { "type": "Point", "coordinates": [ 139.645693315549778, 35.553742124099784 ] } },
{ "type": "Feature", "properties": { "gid": 12988, "fclass": "restaurant", "name": "白鳥" }, "geometry": { "type": "Point", "coordinates": [ 139.646407951073598, 35.554296133946103 ] } },
{ "type": "Feature", "properties": { "gid": 12989, "fclass": "restaurant", "name": "とまからあげ" }, "geometry": { "type": "Point", "coordinates": [ 139.646027170654605, 35.554130687603369 ] } },
{ "type": "Feature", "properties": { "gid": 12991, "fclass": "restaurant", "name": "1F ピザSANTINO 2F ステーキ くいしんぼ" }, "geometry": { "type": "Point", "coordinates": [ 139.6461118, 35.5539996 ] } },
{ "type": "Feature", "properties": { "gid": 12992, "fclass": "restaurant", "name": "ラーメン柴田商店" }, "geometry": { "type": "Point", "coordinates": [ 139.646533249999976, 35.55432645 ] } },
{ "type": "Feature", "properties": { "gid": 12993, "fclass": "restaurant", "name": "魚臣" }, "geometry": { "type": "Point", "coordinates": [ 139.646074172112947, 35.55404478671921 ] } },
{ "type": "Feature", "properties": { "gid": 12994, "fclass": "restaurant", "name": "BFドマーレ" }, "geometry": { "type": "Point", "coordinates": [ 139.646423517110691, 35.553950232142888 ] } },
{ "type": "Feature", "properties": { "gid": 12996, "fclass": "restaurant", "name": "GYOZA" }, "geometry": { "type": "Point", "coordinates": [ 139.646079312136123, 35.554151698595057 ] } },
{ "type": "Feature", "properties": { "gid": 13150, "fclass": "restaurant", "name": "はま寿司" }, "geometry": { "type": "Point", "coordinates": [ 139.395745098166486, 35.668926471595924 ] } },
{ "type": "Feature", "properties": { "gid": 13156, "fclass": "restaurant", "name": "Mamma Pasta" }, "geometry": { "type": "Point", "coordinates": [ 139.414537275064021, 35.669696995295098 ] } },
{ "type": "Feature", "properties": { "gid": 13163, "fclass": "restaurant", "name": "麺飯店マラマラ" }, "geometry": { "type": "Point", "coordinates": [ 139.407453902766576, 35.669519119670227 ] } },
{ "type": "Feature", "properties": { "gid": 13183, "fclass": "restaurant", "name": "湯元" }, "geometry": { "type": "Point", "coordinates": [ 139.869552788554927, 35.766302010988348 ] } },
{ "type": "Feature", "properties": { "gid": 13195, "fclass": "restaurant", "name": "ロイヤルホスト" }, "geometry": { "type": "Point", "coordinates": [ 139.408110265022742, 35.687750879726444 ] } },
{ "type": "Feature", "properties": { "gid": 13232, "fclass": "restaurant", "name": "和風レストラン　まるまつ" }, "geometry": { "type": "Point", "coordinates": [ 139.958292991574268, 36.683412521238523 ] } },
{ "type": "Feature", "properties": { "gid": 13248, "fclass": "restaurant", "name": "山田うどん" }, "geometry": { "type": "Point", "coordinates": [ 139.428931957403734, 35.811383667058195 ] } },
{ "type": "Feature", "properties": { "gid": 13250, "fclass": "restaurant", "name": "CP" }, "geometry": { "type": "Point", "coordinates": [ 139.435841629311795, 35.808617717226113 ] } },
{ "type": "Feature", "properties": { "gid": 13264, "fclass": "restaurant", "name": "泉のほとり" }, "geometry": { "type": "Point", "coordinates": [ 139.992860510476987, 36.496230730050463 ] } },
{ "type": "Feature", "properties": { "gid": 13280, "fclass": "restaurant", "name": "デニーズ" }, "geometry": { "type": "Point", "coordinates": [ 139.469598298383829, 35.688690958169758 ] } },
{ "type": "Feature", "properties": { "gid": 13281, "fclass": "restaurant", "name": "チャンダ" }, "geometry": { "type": "Point", "coordinates": [ 139.574509933333331, 35.6376679 ] } },
{ "type": "Feature", "properties": { "gid": 13282, "fclass": "restaurant", "name": "バーミヤン" }, "geometry": { "type": "Point", "coordinates": [ 139.567993426033127, 35.642365140326021 ] } },
{ "type": "Feature", "properties": { "gid": 13286, "fclass": "restaurant", "name": "しゃぶ葉" }, "geometry": { "type": "Point", "coordinates": [ 139.454231936371741, 35.796706426801784 ] } },
{ "type": "Feature", "properties": { "gid": 13303, "fclass": "restaurant", "name": "ガスト" }, "geometry": { "type": "Point", "coordinates": [ 139.353992299550811, 35.680570679615251 ] } },
{ "type": "Feature", "properties": { "gid": 13390, "fclass": "restaurant", "name": "久兵衛屋" }, "geometry": { "type": "Point", "coordinates": [ 139.370298907652852, 36.058858575893602 ] } },
{ "type": "Feature", "properties": { "gid": 13703, "fclass": "restaurant", "name": "魯園菜館" }, "geometry": { "type": "Point", "coordinates": [ 139.394722161539022, 35.454106482722828 ] } },
{ "type": "Feature", "properties": { "gid": 13714, "fclass": "restaurant", "name": "しゃぶ葉" }, "geometry": { "type": "Point", "coordinates": [ 139.373427132239811, 35.722589434090246 ] } },
{ "type": "Feature", "properties": { "gid": 13743, "fclass": "restaurant", "name": "ばぁむ (Hamburg Restaurant Baamu)" }, "geometry": { "type": "Point", "coordinates": [ 139.98147333403972, 35.708277527092086 ] } },
{ "type": "Feature", "properties": { "gid": 13786, "fclass": "restaurant", "name": "魚庄" }, "geometry": { "type": "Point", "coordinates": [ 139.654828499999979, 36.0091682 ] } },
{ "type": "Feature", "properties": { "gid": 13822, "fclass": "restaurant", "name": "らーめんみそ膳" }, "geometry": { "type": "Point", "coordinates": [ 138.826843396733807, 36.573897834118767 ] } },
{ "type": "Feature", "properties": { "gid": 13873, "fclass": "restaurant", "name": "COCOLO" }, "geometry": { "type": "Point", "coordinates": [ 139.654758917332884, 36.015516716277574 ] } },
{ "type": "Feature", "properties": { "gid": 13879, "fclass": "restaurant", "name": "サイゼリヤ" }, "geometry": { "type": "Point", "coordinates": [ 139.997338694227409, 35.745896077141786 ] } },
{ "type": "Feature", "properties": { "gid": 13882, "fclass": "restaurant", "name": "ビッグボーイ" }, "geometry": { "type": "Point", "coordinates": [ 139.997614690801356, 35.746563280345718 ] } },
{ "type": "Feature", "properties": { "gid": 13883, "fclass": "restaurant", "name": "山田うどん" }, "geometry": { "type": "Point", "coordinates": [ 140.006242284901305, 35.712867733086853 ] } },
{ "type": "Feature", "properties": { "gid": 13939, "fclass": "restaurant", "name": "しらす問屋 とびっちょ" }, "geometry": { "type": "Point", "coordinates": [ 139.480826130120988, 35.301940933800999 ] } },
{ "type": "Feature", "properties": { "gid": 13934, "fclass": "restaurant", "name": "二楽荘" }, "geometry": { "type": "Point", "coordinates": [ 139.551895562492945, 35.321220480367117 ] } },
{ "type": "Feature", "properties": { "gid": 13959, "fclass": "restaurant", "name": "きむら" }, "geometry": { "type": "Point", "coordinates": [ 139.481990068584508, 35.300039689605917 ] } },
{ "type": "Feature", "properties": { "gid": 13960, "fclass": "restaurant", "name": "弁天茶屋" }, "geometry": { "type": "Point", "coordinates": [ 139.47956425000001, 35.2989966 ] } },
{ "type": "Feature", "properties": { "gid": 13961, "fclass": "restaurant", "name": "しらす問屋 とびっちょ" }, "geometry": { "type": "Point", "coordinates": [ 139.482243163173706, 35.301301854904587 ] } },
{ "type": "Feature", "properties": { "gid": 13964, "fclass": "restaurant", "name": "江の島うどん こと屋" }, "geometry": { "type": "Point", "coordinates": [ 139.476439454917198, 35.299304675576138 ] } },
{ "type": "Feature", "properties": { "gid": 13965, "fclass": "restaurant", "name": "冨士見亭" }, "geometry": { "type": "Point", "coordinates": [ 139.475050425852913, 35.299111292827703 ] } },
{ "type": "Feature", "properties": { "gid": 14020, "fclass": "restaurant", "name": "かつふじ亭" }, "geometry": { "type": "Point", "coordinates": [ 138.912798573800188, 36.552966066739252 ] } },
{ "type": "Feature", "properties": { "gid": 14035, "fclass": "restaurant", "name": "サイゼリヤ" }, "geometry": { "type": "Point", "coordinates": [ 139.969230605864482, 35.709677826328551 ] } },
{ "type": "Feature", "properties": { "gid": 14061, "fclass": "restaurant", "name": "ぷくぷく亭2F" }, "geometry": { "type": "Point", "coordinates": [ 139.64575484022717, 35.554169409594962 ] } },
{ "type": "Feature", "properties": { "gid": 14063, "fclass": "restaurant", "name": "がっとん" }, "geometry": { "type": "Point", "coordinates": [ 139.64599601476246, 35.554271058547094 ] } },
{ "type": "Feature", "properties": { "gid": 14077, "fclass": "restaurant", "name": null }, "geometry": { "type": "Point", "coordinates": [ 139.356750024927095, 35.712189154072782 ] } },
{ "type": "Feature", "properties": { "gid": 14129, "fclass": "restaurant", "name": "バーミヤン" }, "geometry": { "type": "Point", "coordinates": [ 139.640276569534649, 35.751685754752543 ] } },
{ "type": "Feature", "properties": { "gid": 14125, "fclass": "restaurant", "name": "華屋与兵衛" }, "geometry": { "type": "Point", "coordinates": [ 139.646674897611064, 35.754562181485412 ] } },
{ "type": "Feature", "properties": { "gid": 14388, "fclass": "restaurant", "name": "ガスト" }, "geometry": { "type": "Point", "coordinates": [ 139.011031140367095, 36.353865606291755 ] } },
{ "type": "Feature", "properties": { "gid": 14389, "fclass": "restaurant", "name": "シャンゴ" }, "geometry": { "type": "Point", "coordinates": [ 139.00791187895345, 36.351063293208668 ] } },
{ "type": "Feature", "properties": { "gid": 14424, "fclass": "restaurant", "name": "サカエヤ" }, "geometry": { "type": "Point", "coordinates": [ 139.780116935456618, 35.707378831036962 ] } },
{ "type": "Feature", "properties": { "gid": 14428, "fclass": "restaurant", "name": null }, "geometry": { "type": "Point", "coordinates": [ 140.116604394168007, 35.802070418889883 ] } },
{ "type": "Feature", "properties": { "gid": 14456, "fclass": "restaurant", "name": "信濃庵" }, "geometry": { "type": "Point", "coordinates": [ 139.354817950000012, 34.7505889 ] } },
{ "type": "Feature", "properties": { "gid": 14457, "fclass": "restaurant", "name": "栄楽" }, "geometry": { "type": "Point", "coordinates": [ 139.354491, 34.75016985 ] } },
{ "type": "Feature", "properties": { "gid": 14503, "fclass": "restaurant", "name": "ココス" }, "geometry": { "type": "Point", "coordinates": [ 139.536955300771467, 35.669379583409892 ] } },
{ "type": "Feature", "properties": { "gid": 14517, "fclass": "restaurant", "name": "ガスト" }, "geometry": { "type": "Point", "coordinates": [ 139.91110663015769, 36.582769774325797 ] } },
{ "type": "Feature", "properties": { "gid": 14518, "fclass": "restaurant", "name": "サイゼリヤ" }, "geometry": { "type": "Point", "coordinates": [ 139.909957686164631, 36.581867195109879 ] } },
{ "type": "Feature", "properties": { "gid": 14524, "fclass": "restaurant", "name": "まるまつ" }, "geometry": { "type": "Point", "coordinates": [ 139.911264134077726, 36.584330898881099 ] } },
{ "type": "Feature", "properties": { "gid": 14591, "fclass": "restaurant", "name": "サイゼリヤ" }, "geometry": { "type": "Point", "coordinates": [ 139.855750310523405, 36.573242057838335 ] } },
{ "type": "Feature", "properties": { "gid": 20866, "fclass": "restaurant", "name": "かき焼き屋こぶし" }, "geometry": { "type": "Point", "coordinates": [ 140.148070772129955, 35.98677593282688 ] } },
{ "type": "Feature", "properties": { "gid": 14592, "fclass": "restaurant", "name": "シャングリラ・モティ" }, "geometry": { "type": "Point", "coordinates": [ 139.854858191504519, 36.574437592150304 ] } },
{ "type": "Feature", "properties": { "gid": 14631, "fclass": "restaurant", "name": "ココス" }, "geometry": { "type": "Point", "coordinates": [ 140.588573602152394, 36.405039717373384 ] } },
{ "type": "Feature", "properties": { "gid": 14722, "fclass": "restaurant", "name": "すぎのや" }, "geometry": { "type": "Point", "coordinates": [ 139.962317041737748, 36.437789630846446 ] } },
{ "type": "Feature", "properties": { "gid": 14760, "fclass": "restaurant", "name": "ガスト" }, "geometry": { "type": "Point", "coordinates": [ 139.992260777271611, 36.622260007510185 ] } },
{ "type": "Feature", "properties": { "gid": 14962, "fclass": "restaurant", "name": "レストランすずしろ" }, "geometry": { "type": "Point", "coordinates": [ 139.630833017491483, 35.640974815263121 ] } },
{ "type": "Feature", "properties": { "gid": 15125, "fclass": "restaurant", "name": "ガスト" }, "geometry": { "type": "Point", "coordinates": [ 139.614615249999986, 35.91851795 ] } },
{ "type": "Feature", "properties": { "gid": 15094, "fclass": "restaurant", "name": "HAMACHO" }, "geometry": { "type": "Point", "coordinates": [ 139.626056950204315, 35.907329328591274 ] } },
{ "type": "Feature", "properties": { "gid": 15096, "fclass": "restaurant", "name": "鮨政" }, "geometry": { "type": "Point", "coordinates": [ 139.626146249999977, 35.907297449999987 ] } },
{ "type": "Feature", "properties": { "gid": 15116, "fclass": "restaurant", "name": "ワインバーコルク" }, "geometry": { "type": "Point", "coordinates": [ 139.625728426649289, 35.908543988613225 ] } },
{ "type": "Feature", "properties": { "gid": 15118, "fclass": "restaurant", "name": "更科屋" }, "geometry": { "type": "Point", "coordinates": [ 139.628430062969954, 35.905192178818176 ] } },
{ "type": "Feature", "properties": { "gid": 15197, "fclass": "restaurant", "name": "がってん寿司" }, "geometry": { "type": "Point", "coordinates": [ 139.678737755145136, 35.723674773521296 ] } },
{ "type": "Feature", "properties": { "gid": 15381, "fclass": "restaurant", "name": "山手十番館" }, "geometry": { "type": "Point", "coordinates": [ 139.652576848154041, 35.438846225072453 ] } },
{ "type": "Feature", "properties": { "gid": 15400, "fclass": "restaurant", "name": "山田うどん" }, "geometry": { "type": "Point", "coordinates": [ 139.959003350000017, 36.56811895 ] } },
{ "type": "Feature", "properties": { "gid": 15433, "fclass": "restaurant", "name": "回転展望レストラン" }, "geometry": { "type": "Point", "coordinates": [ 139.972300201295639, 35.863115014916865 ] } },
{ "type": "Feature", "properties": { "gid": 15483, "fclass": "restaurant", "name": null }, "geometry": { "type": "Point", "coordinates": [ 140.058532465031504, 35.724733732359148 ] } },
{ "type": "Feature", "properties": { "gid": 15484, "fclass": "restaurant", "name": null }, "geometry": { "type": "Point", "coordinates": [ 140.0590933643374, 35.724495840511231 ] } },
{ "type": "Feature", "properties": { "gid": 15487, "fclass": "restaurant", "name": null }, "geometry": { "type": "Point", "coordinates": [ 140.058445197271226, 35.724285566966316 ] } },
{ "type": "Feature", "properties": { "gid": 15501, "fclass": "restaurant", "name": "P.C.A. Pub Cardinal Akasaka" }, "geometry": { "type": "Point", "coordinates": [ 139.736754882056516, 35.672904304040209 ] } },
{ "type": "Feature", "properties": { "gid": 15502, "fclass": "restaurant", "name": "グリージョ・ラ・ターヴォラ" }, "geometry": { "type": "Point", "coordinates": [ 139.736294509125514, 35.672761945376159 ] } },
{ "type": "Feature", "properties": { "gid": 15504, "fclass": "restaurant", "name": "ブレッツカフェ クレープリー" }, "geometry": { "type": "Point", "coordinates": [ 139.736479607070294, 35.672771568288461 ] } },
{ "type": "Feature", "properties": { "gid": 15505, "fclass": "restaurant", "name": "ヴィラモウラ" }, "geometry": { "type": "Point", "coordinates": [ 139.736253943240115, 35.672864742214564 ] } },
{ "type": "Feature", "properties": { "gid": 15507, "fclass": "restaurant", "name": "ドラゴン レッド リバー" }, "geometry": { "type": "Point", "coordinates": [ 139.735973607315401, 35.672847111366686 ] } },
{ "type": "Feature", "properties": { "gid": 15508, "fclass": "restaurant", "name": "ドミニク・サブロン" }, "geometry": { "type": "Point", "coordinates": [ 139.736790814995231, 35.673456114528015 ] } },
{ "type": "Feature", "properties": { "gid": 15509, "fclass": "restaurant", "name": "シュリンプ＆オイスターバー" }, "geometry": { "type": "Point", "coordinates": [ 139.736103871011068, 35.672685476625922 ] } },
{ "type": "Feature", "properties": { "gid": 15511, "fclass": "restaurant", "name": "コート・ド・ルージュ" }, "geometry": { "type": "Point", "coordinates": [ 139.736793031834111, 35.673581105481752 ] } },
{ "type": "Feature", "properties": { "gid": 15513, "fclass": "restaurant", "name": "ビビゴ" }, "geometry": { "type": "Point", "coordinates": [ 139.735975225493661, 35.672975757934545 ] } },
{ "type": "Feature", "properties": { "gid": 15514, "fclass": "restaurant", "name": "デリリウムカフェ レゼルブ" }, "geometry": { "type": "Point", "coordinates": [ 139.736068278881703, 35.673122025526894 ] } },
{ "type": "Feature", "properties": { "gid": 15515, "fclass": "restaurant", "name": "モダン・カタラン・スパニッシュ “ビキニ”" }, "geometry": { "type": "Point", "coordinates": [ 139.736195389543127, 35.673020359816221 ] } },
{ "type": "Feature", "properties": { "gid": 15523, "fclass": "restaurant", "name": null }, "geometry": { "type": "Point", "coordinates": [ 138.963456486850021, 36.344522339093459 ] } },
{ "type": "Feature", "properties": { "gid": 15549, "fclass": "restaurant", "name": "ドーゾ" }, "geometry": { "type": "Point", "coordinates": [ 139.736069547151914, 35.672886334974315 ] } },
{ "type": "Feature", "properties": { "gid": 15551, "fclass": "restaurant", "name": "こめぐに" }, "geometry": { "type": "Point", "coordinates": [ 139.736277839799669, 35.672849457779947 ] } },
{ "type": "Feature", "properties": { "gid": 15552, "fclass": "restaurant", "name": "シンガポール海南鶏飯" }, "geometry": { "type": "Point", "coordinates": [ 139.736533183096071, 35.672780592321622 ] } },
{ "type": "Feature", "properties": { "gid": 15553, "fclass": "restaurant", "name": "げんまい食堂 SMILE KITCHEN" }, "geometry": { "type": "Point", "coordinates": [ 139.736647617321069, 35.672705574857218 ] } },
{ "type": "Feature", "properties": { "gid": 15558, "fclass": "restaurant", "name": "ドラゴン デリ" }, "geometry": { "type": "Point", "coordinates": [ 139.736562482650186, 35.672678206575696 ] } },
{ "type": "Feature", "properties": { "gid": 15560, "fclass": "restaurant", "name": "トップス" }, "geometry": { "type": "Point", "coordinates": [ 139.736624777606494, 35.672822127145075 ] } },
{ "type": "Feature", "properties": { "gid": 15562, "fclass": "restaurant", "name": "エスプレッサメンテ イリー" }, "geometry": { "type": "Point", "coordinates": [ 139.736342284732586, 35.672774714015652 ] } },
{ "type": "Feature", "properties": { "gid": 15610, "fclass": "restaurant", "name": "ざくろ" }, "geometry": { "type": "Point", "coordinates": [ 139.736168376959171, 35.673219982287485 ] } },
{ "type": "Feature", "properties": { "gid": 15611, "fclass": "restaurant", "name": "しゃぶせん" }, "geometry": { "type": "Point", "coordinates": [ 139.736186908809856, 35.673090984240986 ] } },
{ "type": "Feature", "properties": { "gid": 15614, "fclass": "restaurant", "name": "ヴィエイユ・ヴィーニュ マキシム・ド・パリ" }, "geometry": { "type": "Point", "coordinates": [ 139.736792560766958, 35.673538730755155 ] } },
{ "type": "Feature", "properties": { "gid": 15615, "fclass": "restaurant", "name": "手羽揚・博多水炊き 若どり" }, "geometry": { "type": "Point", "coordinates": [ 139.736018577661866, 35.672737029899174 ] } },
{ "type": "Feature", "properties": { "gid": 15616, "fclass": "restaurant", "name": "梅丘寿司の美登利" }, "geometry": { "type": "Point", "coordinates": [ 139.735850048002874, 35.672894777212498 ] } },
{ "type": "Feature", "properties": { "gid": 15735, "fclass": "restaurant", "name": "すし割烹　二子鮨" }, "geometry": { "type": "Point", "coordinates": [ 139.628516363140079, 35.612561153753191 ] } },
{ "type": "Feature", "properties": { "gid": 15746, "fclass": "restaurant", "name": "海幸" }, "geometry": { "type": "Point", "coordinates": [ 139.628387518637112, 35.612557869072624 ] } },
{ "type": "Feature", "properties": { "gid": 15747, "fclass": "restaurant", "name": "鉄板串焼 嵐" }, "geometry": { "type": "Point", "coordinates": [ 139.628625139599876, 35.612551544772131 ] } },
{ "type": "Feature", "properties": { "gid": 15799, "fclass": "restaurant", "name": "ガスト" }, "geometry": { "type": "Point", "coordinates": [ 139.01476796222974, 36.320763125249194 ] } },
{ "type": "Feature", "properties": { "gid": 15872, "fclass": "restaurant", "name": "N_７１１０" }, "geometry": { "type": "Point", "coordinates": [ 139.628393818723652, 35.612297959876841 ] } },
{ "type": "Feature", "properties": { "gid": 15873, "fclass": "restaurant", "name": "とんかつ新宿さぼてん" }, "geometry": { "type": "Point", "coordinates": [ 139.628220016457732, 35.612183937062042 ] } },
{ "type": "Feature", "properties": { "gid": 15859, "fclass": "restaurant", "name": "ラーメン たま屋" }, "geometry": { "type": "Point", "coordinates": [ 139.481314, 35.34801205 ] } },
{ "type": "Feature", "properties": { "gid": 15874, "fclass": "restaurant", "name": "ガンボ&オイスターバー" }, "geometry": { "type": "Point", "coordinates": [ 139.628424606345533, 35.612120079759144 ] } },
{ "type": "Feature", "properties": { "gid": 15875, "fclass": "restaurant", "name": "ピッツェリア ドォーロ ローマ" }, "geometry": { "type": "Point", "coordinates": [ 139.628556180216293, 35.612348839677452 ] } },
{ "type": "Feature", "properties": { "gid": 15876, "fclass": "restaurant", "name": "小松庵総本家" }, "geometry": { "type": "Point", "coordinates": [ 139.628301492877569, 35.61232527585944 ] } },
{ "type": "Feature", "properties": { "gid": 15877, "fclass": "restaurant", "name": "旬菜食健 ひな野" }, "geometry": { "type": "Point", "coordinates": [ 139.628714564396233, 35.612316415905156 ] } },
{ "type": "Feature", "properties": { "gid": 15878, "fclass": "restaurant", "name": "梅蘭" }, "geometry": { "type": "Point", "coordinates": [ 139.628710714065363, 35.612078594270038 ] } },
{ "type": "Feature", "properties": { "gid": 15879, "fclass": "restaurant", "name": "海鮮処寿し常 彩" }, "geometry": { "type": "Point", "coordinates": [ 139.628434747836309, 35.612438771790977 ] } },
{ "type": "Feature", "properties": { "gid": 15880, "fclass": "restaurant", "name": "神戸元町ドリア" }, "geometry": { "type": "Point", "coordinates": [ 139.62874599925874, 35.612176481999306 ] } },
{ "type": "Feature", "properties": { "gid": 15881, "fclass": "restaurant", "name": "韓美膳（ハンビジェ）" }, "geometry": { "type": "Point", "coordinates": [ 139.62833011512555, 35.612149713893558 ] } },
{ "type": "Feature", "properties": { "gid": 15938, "fclass": "restaurant", "name": "夢庵" }, "geometry": { "type": "Point", "coordinates": [ 139.42959757494279, 35.626711749939318 ] } },
{ "type": "Feature", "properties": { "gid": 16054, "fclass": "restaurant", "name": "柳屋" }, "geometry": { "type": "Point", "coordinates": [ 140.5689932, 36.31321935 ] } },
{ "type": "Feature", "properties": { "gid": 15985, "fclass": "restaurant", "name": "いわま餃子" }, "geometry": { "type": "Point", "coordinates": [ 139.753419136167253, 35.699170654889564 ] } },
{ "type": "Feature", "properties": { "gid": 15986, "fclass": "restaurant", "name": "名代 富士そば 水道橋店" }, "geometry": { "type": "Point", "coordinates": [ 139.752389196867824, 35.701687915132752 ] } },
{ "type": "Feature", "properties": { "gid": 16053, "fclass": "restaurant", "name": "GAGA KITCHEN" }, "geometry": { "type": "Point", "coordinates": [ 140.568697006924225, 36.313296341992682 ] } },
{ "type": "Feature", "properties": { "gid": 16067, "fclass": "restaurant", "name": "ジョナサン" }, "geometry": { "type": "Point", "coordinates": [ 139.393882968234095, 35.451283926028971 ] } },
{ "type": "Feature", "properties": { "gid": 16145, "fclass": "restaurant", "name": "プリンス ビラ" }, "geometry": { "type": "Point", "coordinates": [ 139.618303686480402, 35.387166657388754 ] } },
{ "type": "Feature", "properties": { "gid": 16250, "fclass": "restaurant", "name": "吉野寿司" }, "geometry": { "type": "Point", "coordinates": [ 139.750513390525498, 35.73621975171416 ] } },
{ "type": "Feature", "properties": { "gid": 16299, "fclass": "restaurant", "name": "四季" }, "geometry": { "type": "Point", "coordinates": [ 139.392764310904795, 36.002519274711169 ] } },
{ "type": "Feature", "properties": { "gid": 16309, "fclass": "restaurant", "name": null }, "geometry": { "type": "Point", "coordinates": [ 139.685517190331581, 35.607914520774997 ] } },
{ "type": "Feature", "properties": { "gid": 16384, "fclass": "restaurant", "name": "パーチェ" }, "geometry": { "type": "Point", "coordinates": [ 139.375912899999975, 36.00192815 ] } },
{ "type": "Feature", "properties": { "gid": 16431, "fclass": "restaurant", "name": "龍興園" }, "geometry": { "type": "Point", "coordinates": [ 139.388224649999984, 36.00492385 ] } },
{ "type": "Feature", "properties": { "gid": 16660, "fclass": "restaurant", "name": "クイーン・オブ・ハートのバンケットホール" }, "geometry": { "type": "Point", "coordinates": [ 139.881486605683563, 35.630885811556432 ] } },
{ "type": "Feature", "properties": { "gid": 16676, "fclass": "restaurant", "name": "はま寿司" }, "geometry": { "type": "Point", "coordinates": [ 139.42675527486665, 35.872770617189801 ] } },
{ "type": "Feature", "properties": { "gid": 16687, "fclass": "restaurant", "name": "匠力" }, "geometry": { "type": "Point", "coordinates": [ 139.72164525, 35.6504199 ] } },
{ "type": "Feature", "properties": { "gid": 16692, "fclass": "restaurant", "name": "ビッグボーイ" }, "geometry": { "type": "Point", "coordinates": [ 139.92115475, 36.57962375 ] } },
{ "type": "Feature", "properties": { "gid": 16712, "fclass": "restaurant", "name": "Kotobuki" }, "geometry": { "type": "Point", "coordinates": [ 139.721544469790473, 35.650586305941879 ] } },
{ "type": "Feature", "properties": { "gid": 16713, "fclass": "restaurant", "name": "油そば" }, "geometry": { "type": "Point", "coordinates": [ 139.721381150000013, 35.65056345 ] } },
{ "type": "Feature", "properties": { "gid": 16701, "fclass": "restaurant", "name": "びっくりドンキー" }, "geometry": { "type": "Point", "coordinates": [ 139.441115720995015, 35.885361130873406 ] } },
{ "type": "Feature", "properties": { "gid": 16725, "fclass": "restaurant", "name": "ガスト" }, "geometry": { "type": "Point", "coordinates": [ 139.46523144575616, 35.899941121347219 ] } },
{ "type": "Feature", "properties": { "gid": 16727, "fclass": "restaurant", "name": "ロイヤルホスト" }, "geometry": { "type": "Point", "coordinates": [ 139.466574172943012, 35.900392323407338 ] } },
{ "type": "Feature", "properties": { "gid": 16737, "fclass": "restaurant", "name": "がってん寿司 狭山店" }, "geometry": { "type": "Point", "coordinates": [ 139.378256621860032, 35.854408470942147 ] } },
{ "type": "Feature", "properties": { "gid": 16751, "fclass": "restaurant", "name": "キャプテンフックス・ギャレー" }, "geometry": { "type": "Point", "coordinates": [ 139.882058148126305, 35.631955087627155 ] } },
{ "type": "Feature", "properties": { "gid": 16827, "fclass": "restaurant", "name": "茶源樓" }, "geometry": { "type": "Point", "coordinates": [ 139.713583226677599, 35.655306406575534 ] } },
{ "type": "Feature", "properties": { "gid": 16854, "fclass": "restaurant", "name": "紋屋" }, "geometry": { "type": "Point", "coordinates": [ 139.737171651109207, 35.637602435153731 ] } },
{ "type": "Feature", "properties": { "gid": 16870, "fclass": "restaurant", "name": "上村" }, "geometry": { "type": "Point", "coordinates": [ 139.827672269095046, 35.750897439028236 ] } },
{ "type": "Feature", "properties": { "gid": 16918, "fclass": "restaurant", "name": "あさや" }, "geometry": { "type": "Point", "coordinates": [ 140.570565375897189, 36.313955725703686 ] } },
{ "type": "Feature", "properties": { "gid": 16919, "fclass": "restaurant", "name": "常陸屋" }, "geometry": { "type": "Point", "coordinates": [ 140.57106594971566, 36.31415279997006 ] } },
{ "type": "Feature", "properties": { "gid": 20871, "fclass": "restaurant", "name": "ゆで太郎" }, "geometry": { "type": "Point", "coordinates": [ 140.15279755, 35.9882636 ] } },
{ "type": "Feature", "properties": { "gid": 16946, "fclass": "restaurant", "name": "ラトリエ ドゥ ジョエル・ロブション" }, "geometry": { "type": "Point", "coordinates": [ 139.729349044219617, 35.660099352426499 ] } },
{ "type": "Feature", "properties": { "gid": 16947, "fclass": "restaurant", "name": "香港茶樓" }, "geometry": { "type": "Point", "coordinates": [ 139.730020154644308, 35.660367104998592 ] } },
{ "type": "Feature", "properties": { "gid": 16973, "fclass": "restaurant", "name": "ねぎっこ (negikko)" }, "geometry": { "type": "Point", "coordinates": [ 139.90961565, 36.5931252 ] } },
{ "type": "Feature", "properties": { "gid": 17003, "fclass": "restaurant", "name": "福助" }, "geometry": { "type": "Point", "coordinates": [ 140.568118206194015, 36.312582001170128 ] } },
{ "type": "Feature", "properties": { "gid": 17189, "fclass": "restaurant", "name": "加賀屋" }, "geometry": { "type": "Point", "coordinates": [ 140.317080049999987, 35.78021945 ] } },
{ "type": "Feature", "properties": { "gid": 17195, "fclass": "restaurant", "name": "こなや" }, "geometry": { "type": "Point", "coordinates": [ 140.316366099999982, 35.7833045 ] } },
{ "type": "Feature", "properties": { "gid": 17324, "fclass": "restaurant", "name": null }, "geometry": { "type": "Point", "coordinates": [ 139.372645050000017, 35.6586806 ] } },
{ "type": "Feature", "properties": { "gid": 17491, "fclass": "restaurant", "name": "金藤" }, "geometry": { "type": "Point", "coordinates": [ 140.568013814240828, 36.311882392512381 ] } },
{ "type": "Feature", "properties": { "gid": 17519, "fclass": "restaurant", "name": "マンマ パスタ" }, "geometry": { "type": "Point", "coordinates": [ 139.473439378219808, 35.538777876401312 ] } },
{ "type": "Feature", "properties": { "gid": 17717, "fclass": "restaurant", "name": "三次郎" }, "geometry": { "type": "Point", "coordinates": [ 139.668322439414283, 35.948955747670027 ] } },
{ "type": "Feature", "properties": { "gid": 17751, "fclass": "restaurant", "name": "華屋与兵衛" }, "geometry": { "type": "Point", "coordinates": [ 139.737425358824368, 35.5522607026288 ] } },
{ "type": "Feature", "properties": { "gid": 17833, "fclass": "restaurant", "name": "ベーカリーレストラン サンマルク" }, "geometry": { "type": "Point", "coordinates": [ 139.63580775, 35.91864335 ] } },
{ "type": "Feature", "properties": { "gid": 17897, "fclass": "restaurant", "name": "小竹林" }, "geometry": { "type": "Point", "coordinates": [ 139.55640302372268, 35.430401248636599 ] } },
{ "type": "Feature", "properties": { "gid": 17909, "fclass": "restaurant", "name": "そば処 三本松 中村屋" }, "geometry": { "type": "Point", "coordinates": [ 139.71025584274696, 35.596588066778232 ] } },
{ "type": "Feature", "properties": { "gid": 17954, "fclass": "restaurant", "name": "華屋与兵衛" }, "geometry": { "type": "Point", "coordinates": [ 139.824006882474094, 35.758224424462242 ] } },
{ "type": "Feature", "properties": { "gid": 17967, "fclass": "restaurant", "name": null }, "geometry": { "type": "Point", "coordinates": [ 139.95368212618402, 35.831573065857945 ] } },
{ "type": "Feature", "properties": { "gid": 17969, "fclass": "restaurant", "name": null }, "geometry": { "type": "Point", "coordinates": [ 139.8260602321173, 35.761604458097565 ] } },
{ "type": "Feature", "properties": { "gid": 18075, "fclass": "restaurant", "name": "朱苑" }, "geometry": { "type": "Point", "coordinates": [ 139.6409232, 35.9076869 ] } },
{ "type": "Feature", "properties": { "gid": 18107, "fclass": "restaurant", "name": "きそば田毎" }, "geometry": { "type": "Point", "coordinates": [ 139.74185845, 35.55111305 ] } },
{ "type": "Feature", "properties": { "gid": 18175, "fclass": "restaurant", "name": "浜田家" }, "geometry": { "type": "Point", "coordinates": [ 139.78300927887355, 35.687179698513596 ] } },
{ "type": "Feature", "properties": { "gid": 18179, "fclass": "restaurant", "name": "Aso Michelangelo 米其林二星餐廳" }, "geometry": { "type": "Point", "coordinates": [ 139.699433643719232, 35.648556232119915 ] } },
{ "type": "Feature", "properties": { "gid": 18180, "fclass": "restaurant", "name": "ヒルサイドテラス A棟" }, "geometry": { "type": "Point", "coordinates": [ 139.701493662214205, 35.64746387307617 ] } },
{ "type": "Feature", "properties": { "gid": 18248, "fclass": "restaurant", "name": "Comptoir Coin" }, "geometry": { "type": "Point", "coordinates": [ 139.78906365, 35.702597 ] } },
{ "type": "Feature", "properties": { "gid": 18250, "fclass": "restaurant", "name": "蔵前元楽総本店" }, "geometry": { "type": "Point", "coordinates": [ 139.792329158352203, 35.703813265105317 ] } },
{ "type": "Feature", "properties": { "gid": 18274, "fclass": "restaurant", "name": "とんかつ藤芳" }, "geometry": { "type": "Point", "coordinates": [ 139.782434439759669, 35.701092976894543 ] } },
{ "type": "Feature", "properties": { "gid": 18279, "fclass": "restaurant", "name": null }, "geometry": { "type": "Point", "coordinates": [ 139.722850476161085, 35.568239857764233 ] } },
{ "type": "Feature", "properties": { "gid": 18341, "fclass": "restaurant", "name": "ゆで太郎 大森南店" }, "geometry": { "type": "Point", "coordinates": [ 139.746385134040764, 35.564109802950135 ] } },
{ "type": "Feature", "properties": { "gid": 18429, "fclass": "restaurant", "name": "和食レストランとんでん三芳店" }, "geometry": { "type": "Point", "coordinates": [ 139.528038453617143, 35.836823760190619 ] } },
{ "type": "Feature", "properties": { "gid": 18440, "fclass": "restaurant", "name": "魚武" }, "geometry": { "type": "Point", "coordinates": [ 140.111645933232978, 35.618449447907615 ] } },
{ "type": "Feature", "properties": { "gid": 18464, "fclass": "restaurant", "name": "安楽亭" }, "geometry": { "type": "Point", "coordinates": [ 139.5221905699361, 35.843639590748623 ] } },
{ "type": "Feature", "properties": { "gid": 18747, "fclass": "restaurant", "name": "山田屋" }, "geometry": { "type": "Point", "coordinates": [ 139.781349521377393, 35.731832759581273 ] } },
{ "type": "Feature", "properties": { "gid": 18818, "fclass": "restaurant", "name": "砂場総本家(南千住砂場)" }, "geometry": { "type": "Point", "coordinates": [ 139.790832836203919, 35.733227907854065 ] } },
{ "type": "Feature", "properties": { "gid": 18935, "fclass": "restaurant", "name": "ガスト" }, "geometry": { "type": "Point", "coordinates": [ 139.431463139979627, 35.79682888872108 ] } },
{ "type": "Feature", "properties": { "gid": 19037, "fclass": "restaurant", "name": "海鮮茶屋 寿し光" }, "geometry": { "type": "Point", "coordinates": [ 139.353752666559473, 34.750889161336922 ] } },
{ "type": "Feature", "properties": { "gid": 19074, "fclass": "restaurant", "name": "ヒマラヤ" }, "geometry": { "type": "Point", "coordinates": [ 139.355435548468677, 35.58226174113836 ] } },
{ "type": "Feature", "properties": { "gid": 19100, "fclass": "restaurant", "name": "夢庵" }, "geometry": { "type": "Point", "coordinates": [ 139.469546370112369, 35.760614401344412 ] } },
{ "type": "Feature", "properties": { "gid": 19139, "fclass": "restaurant", "name": null }, "geometry": { "type": "Point", "coordinates": [ 139.61903035, 35.60221125 ] } },
{ "type": "Feature", "properties": { "gid": 19214, "fclass": "restaurant", "name": "みはら" }, "geometry": { "type": "Point", "coordinates": [ 139.330315050000024, 36.40047945 ] } },
{ "type": "Feature", "properties": { "gid": 19375, "fclass": "restaurant", "name": "おぎのや" }, "geometry": { "type": "Point", "coordinates": [ 138.736914260730344, 36.336576319180352 ] } },
{ "type": "Feature", "properties": { "gid": 19446, "fclass": "restaurant", "name": "夢摘屋" }, "geometry": { "type": "Point", "coordinates": [ 139.112427883195039, 36.27065706843954 ] } },
{ "type": "Feature", "properties": { "gid": 19520, "fclass": "restaurant", "name": "ガスト" }, "geometry": { "type": "Point", "coordinates": [ 139.614728075761747, 35.572647677059457 ] } },
{ "type": "Feature", "properties": { "gid": 19548, "fclass": "restaurant", "name": "ガスト" }, "geometry": { "type": "Point", "coordinates": [ 139.318580996846833, 36.404985882039647 ] } },
{ "type": "Feature", "properties": { "gid": 19565, "fclass": "restaurant", "name": "ジョリーパスタ" }, "geometry": { "type": "Point", "coordinates": [ 139.388447689699461, 35.618816047802952 ] } },
{ "type": "Feature", "properties": { "gid": 19567, "fclass": "restaurant", "name": "ビッグボーイ" }, "geometry": { "type": "Point", "coordinates": [ 139.396148909086435, 35.626087371534339 ] } },
{ "type": "Feature", "properties": { "gid": 19568, "fclass": "restaurant", "name": "夢庵" }, "geometry": { "type": "Point", "coordinates": [ 139.394088209558078, 35.625526560779193 ] } },
{ "type": "Feature", "properties": { "gid": 19585, "fclass": "restaurant", "name": "八幡蕎麦 赤羽屋" }, "geometry": { "type": "Point", "coordinates": [ 139.717717448718787, 35.781591804074807 ] } },
{ "type": "Feature", "properties": { "gid": 19742, "fclass": "restaurant", "name": null }, "geometry": { "type": "Point", "coordinates": [ 139.525345499999986, 35.7127851 ] } },
{ "type": "Feature", "properties": { "gid": 19749, "fclass": "restaurant", "name": "グラッチェ" }, "geometry": { "type": "Point", "coordinates": [ 139.594939364516563, 35.795600649369504 ] } },
{ "type": "Feature", "properties": { "gid": 19750, "fclass": "restaurant", "name": "バーミヤン" }, "geometry": { "type": "Point", "coordinates": [ 139.595413720378218, 35.795632891622546 ] } },
{ "type": "Feature", "properties": { "gid": 19752, "fclass": "restaurant", "name": "ミヤマ珈琲 - 銀座ルノアール" }, "geometry": { "type": "Point", "coordinates": [ 139.595820828910831, 35.795519879036405 ] } },
{ "type": "Feature", "properties": { "gid": 19753, "fclass": "restaurant", "name": "丸亀製麺" }, "geometry": { "type": "Point", "coordinates": [ 139.596515511670646, 35.795377337555898 ] } },
{ "type": "Feature", "properties": { "gid": 19834, "fclass": "restaurant", "name": null }, "geometry": { "type": "Point", "coordinates": [ 139.273111623873973, 36.415287242745613 ] } },
{ "type": "Feature", "properties": { "gid": 19898, "fclass": "restaurant", "name": "ビッグボーイ" }, "geometry": { "type": "Point", "coordinates": [ 139.541838564480258, 35.511377134965329 ] } },
{ "type": "Feature", "properties": { "gid": 19902, "fclass": "restaurant", "name": "青葉山レストラン" }, "geometry": { "type": "Point", "coordinates": [ 138.56316093983861, 36.628577546965523 ] } },
{ "type": "Feature", "properties": { "gid": 20022, "fclass": "restaurant", "name": null }, "geometry": { "type": "Point", "coordinates": [ 139.540545008148428, 35.500282744354998 ] } },
{ "type": "Feature", "properties": { "gid": 20064, "fclass": "restaurant", "name": "バフェット" }, "geometry": { "type": "Point", "coordinates": [ 139.432163864689841, 35.429049512368564 ] } },
{ "type": "Feature", "properties": { "gid": 20076, "fclass": "restaurant", "name": "ガスト" }, "geometry": { "type": "Point", "coordinates": [ 139.426307918739809, 35.457210020930724 ] } },
{ "type": "Feature", "properties": { "gid": 20100, "fclass": "restaurant", "name": "道頓堀" }, "geometry": { "type": "Point", "coordinates": [ 139.397194402564025, 35.420409343189135 ] } },
{ "type": "Feature", "properties": { "gid": 20168, "fclass": "restaurant", "name": null }, "geometry": { "type": "Point", "coordinates": [ 139.28206375, 36.41908155 ] } },
{ "type": "Feature", "properties": { "gid": 20262, "fclass": "restaurant", "name": "味の民芸" }, "geometry": { "type": "Point", "coordinates": [ 139.575436213767404, 35.689654358479679 ] } },
{ "type": "Feature", "properties": { "gid": 20477, "fclass": "restaurant", "name": null }, "geometry": { "type": "Point", "coordinates": [ 139.603058715869849, 35.631726903858961 ] } },
{ "type": "Feature", "properties": { "gid": 20621, "fclass": "restaurant", "name": "上海食堂" }, "geometry": { "type": "Point", "coordinates": [ 139.66625377082741, 35.706560289374821 ] } },
{ "type": "Feature", "properties": { "gid": 20713, "fclass": "restaurant", "name": null }, "geometry": { "type": "Point", "coordinates": [ 139.523474719687954, 35.841464613004632 ] } },
{ "type": "Feature", "properties": { "gid": 20714, "fclass": "restaurant", "name": "手打蕎麦ぐらの" }, "geometry": { "type": "Point", "coordinates": [ 139.521749966128766, 35.844297069516216 ] } },
{ "type": "Feature", "properties": { "gid": 20729, "fclass": "restaurant", "name": "サイゼリヤ" }, "geometry": { "type": "Point", "coordinates": [ 140.787151897116956, 35.711732268802841 ] } },
{ "type": "Feature", "properties": { "gid": 20742, "fclass": "restaurant", "name": "梅のや" }, "geometry": { "type": "Point", "coordinates": [ 140.809764013434318, 35.755083843177765 ] } },
{ "type": "Feature", "properties": { "gid": 20744, "fclass": "restaurant", "name": "やまこ庵波崎店" }, "geometry": { "type": "Point", "coordinates": [ 140.803886245218848, 35.75686055199975 ] } },
{ "type": "Feature", "properties": { "gid": 20753, "fclass": "restaurant", "name": "そば屋鳴子" }, "geometry": { "type": "Point", "coordinates": [ 140.685281379367495, 35.869603812150714 ] } },
{ "type": "Feature", "properties": { "gid": 20757, "fclass": "restaurant", "name": "九州ラーメン味っ子" }, "geometry": { "type": "Point", "coordinates": [ 140.685951463232811, 35.878879577330963 ] } },
{ "type": "Feature", "properties": { "gid": 20758, "fclass": "restaurant", "name": "めん丸" }, "geometry": { "type": "Point", "coordinates": [ 140.681551246333612, 35.881433834425536 ] } },
{ "type": "Feature", "properties": { "gid": 20760, "fclass": "restaurant", "name": "とん善" }, "geometry": { "type": "Point", "coordinates": [ 140.652903937547023, 35.893663757788374 ] } },
{ "type": "Feature", "properties": { "gid": 20769, "fclass": "restaurant", "name": "丸亀製麺" }, "geometry": { "type": "Point", "coordinates": [ 140.642782763214768, 35.898566413990679 ] } },
{ "type": "Feature", "properties": { "gid": 20773, "fclass": "restaurant", "name": "伝丸" }, "geometry": { "type": "Point", "coordinates": [ 140.637113967012311, 35.916285294360037 ] } },
{ "type": "Feature", "properties": { "gid": 20774, "fclass": "restaurant", "name": "ステーキ宮" }, "geometry": { "type": "Point", "coordinates": [ 140.638007072549328, 35.917304644260916 ] } },
{ "type": "Feature", "properties": { "gid": 20787, "fclass": "restaurant", "name": "ココス" }, "geometry": { "type": "Point", "coordinates": [ 140.63780255, 35.954156549999986 ] } },
{ "type": "Feature", "properties": { "gid": 20791, "fclass": "restaurant", "name": "デニーズ" }, "geometry": { "type": "Point", "coordinates": [ 140.63955380289309, 35.960613121856809 ] } },
{ "type": "Feature", "properties": { "gid": 20794, "fclass": "restaurant", "name": "剛力家" }, "geometry": { "type": "Point", "coordinates": [ 140.64328363333334, 35.9563646 ] } },
{ "type": "Feature", "properties": { "gid": 20798, "fclass": "restaurant", "name": "元気寿司" }, "geometry": { "type": "Point", "coordinates": [ 140.640514428339742, 35.965011148404805 ] } },
{ "type": "Feature", "properties": { "gid": 20838, "fclass": "restaurant", "name": "無添くら寿司 茨城牛久店" }, "geometry": { "type": "Point", "coordinates": [ 140.144305606220314, 35.980930103667028 ] } },
{ "type": "Feature", "properties": { "gid": 20841, "fclass": "restaurant", "name": "季厨房 牛久店" }, "geometry": { "type": "Point", "coordinates": [ 140.14473459365658, 35.980496334163973 ] } },
{ "type": "Feature", "properties": { "gid": 20842, "fclass": "restaurant", "name": "ばんどう太郎 牛久中央店" }, "geometry": { "type": "Point", "coordinates": [ 140.144145757809241, 35.979706034959733 ] } },
{ "type": "Feature", "properties": { "gid": 20848, "fclass": "restaurant", "name": "ビッグボーイ牛久店" }, "geometry": { "type": "Point", "coordinates": [ 140.145106603396442, 35.981398202943595 ] } },
{ "type": "Feature", "properties": { "gid": 20849, "fclass": "restaurant", "name": "温野菜牛久店" }, "geometry": { "type": "Point", "coordinates": [ 140.145611044445985, 35.981363406267157 ] } },
{ "type": "Feature", "properties": { "gid": 20850, "fclass": "restaurant", "name": "幸楽苑牛久店" }, "geometry": { "type": "Point", "coordinates": [ 140.144780837987184, 35.981687758617696 ] } },
{ "type": "Feature", "properties": { "gid": 20851, "fclass": "restaurant", "name": "ココス 牛久中央店" }, "geometry": { "type": "Point", "coordinates": [ 140.14490304161086, 35.981930728705407 ] } },
{ "type": "Feature", "properties": { "gid": 20859, "fclass": "restaurant", "name": "回転寿司かね喜牛久店" }, "geometry": { "type": "Point", "coordinates": [ 140.147196864157593, 35.984690042246477 ] } },
{ "type": "Feature", "properties": { "gid": 20860, "fclass": "restaurant", "name": "牛久ホルモンおいで屋" }, "geometry": { "type": "Point", "coordinates": [ 140.14682526462289, 35.985110918175749 ] } },
{ "type": "Feature", "properties": { "gid": 20861, "fclass": "restaurant", "name": "CoCo壱番屋牛久中央店" }, "geometry": { "type": "Point", "coordinates": [ 140.147401767621773, 35.985077498651073 ] } },
{ "type": "Feature", "properties": { "gid": 20907, "fclass": "restaurant", "name": "ホライズンベイ・レストラン" }, "geometry": { "type": "Point", "coordinates": [ 139.88367655, 35.62533865 ] } },
{ "type": "Feature", "properties": { "gid": 20883, "fclass": "restaurant", "name": "ガスト" }, "geometry": { "type": "Point", "coordinates": [ 140.641340688011638, 35.899155001163308 ] } },
{ "type": "Feature", "properties": { "gid": 20890, "fclass": "restaurant", "name": "ビッグボーイ" }, "geometry": { "type": "Point", "coordinates": [ 140.636942471971707, 35.915490235789342 ] } },
{ "type": "Feature", "properties": { "gid": 20946, "fclass": "restaurant", "name": "ステーキガスト" }, "geometry": { "type": "Point", "coordinates": [ 139.655955815522077, 36.046419546812317 ] } },
{ "type": "Feature", "properties": { "gid": 20959, "fclass": "restaurant", "name": "ドラゴン" }, "geometry": { "type": "Point", "coordinates": [ 139.564871666381691, 35.683289439719317 ] } },
{ "type": "Feature", "properties": { "gid": 20987, "fclass": "restaurant", "name": "汐彩" }, "geometry": { "type": "Point", "coordinates": [ 139.922744783389703, 35.683648299225403 ] } },
{ "type": "Feature", "properties": { "gid": 20994, "fclass": "restaurant", "name": "華屋与兵衛 三鷹新川店" }, "geometry": { "type": "Point", "coordinates": [ 139.565303757018881, 35.68292363098989 ] } },
{ "type": "Feature", "properties": { "gid": 21016, "fclass": "restaurant", "name": "幸楽苑 調布深大寺店" }, "geometry": { "type": "Point", "coordinates": [ 139.554714216002253, 35.677576364630845 ] } },
{ "type": "Feature", "properties": { "gid": 21017, "fclass": "restaurant", "name": "幸楽苑 調布深大寺店" }, "geometry": { "type": "Point", "coordinates": [ 139.554728112424755, 35.677351197643198 ] } },
{ "type": "Feature", "properties": { "gid": 21111, "fclass": "restaurant", "name": "ドミノ・ピザ" }, "geometry": { "type": "Point", "coordinates": [ 139.529904806584113, 35.395093063264177 ] } },
{ "type": "Feature", "properties": { "gid": 21129, "fclass": "restaurant", "name": "フォルクス" }, "geometry": { "type": "Point", "coordinates": [ 139.521517061916796, 35.391103377996728 ] } },
{ "type": "Feature", "properties": { "gid": 21130, "fclass": "restaurant", "name": "リンガーハット" }, "geometry": { "type": "Point", "coordinates": [ 139.521422416600728, 35.391006010649072 ] } },
{ "type": "Feature", "properties": { "gid": 21268, "fclass": "restaurant", "name": "ジョナサン" }, "geometry": { "type": "Point", "coordinates": [ 139.543127200000015, 35.51706545 ] } },
{ "type": "Feature", "properties": { "gid": 21270, "fclass": "restaurant", "name": "目利きの銀次" }, "geometry": { "type": "Point", "coordinates": [ 139.515456023598517, 35.526004085965909 ] } },
{ "type": "Feature", "properties": { "gid": 21289, "fclass": "restaurant", "name": "松琴楼" }, "geometry": { "type": "Point", "coordinates": [ 139.15772856571337, 35.252926068068206 ] } },
{ "type": "Feature", "properties": { "gid": 21290, "fclass": "restaurant", "name": "餃子の王将" }, "geometry": { "type": "Point", "coordinates": [ 139.531796499999984, 35.3997146 ] } },
{ "type": "Feature", "properties": { "gid": 21292, "fclass": "restaurant", "name": "橋本" }, "geometry": { "type": "Point", "coordinates": [ 139.15771695, 35.2524557 ] } },
{ "type": "Feature", "properties": { "gid": 21326, "fclass": "restaurant", "name": "フォルクス" }, "geometry": { "type": "Point", "coordinates": [ 139.538923122832671, 35.408715110123389 ] } },
{ "type": "Feature", "properties": { "gid": 21357, "fclass": "restaurant", "name": "日清亭" }, "geometry": { "type": "Point", "coordinates": [ 139.158884525521501, 35.250334337167594 ] } },
{ "type": "Feature", "properties": { "gid": 21358, "fclass": "restaurant", "name": "そば処田毎" }, "geometry": { "type": "Point", "coordinates": [ 139.15769028018201, 35.250291638525667 ] } },
{ "type": "Feature", "properties": { "gid": 21369, "fclass": "restaurant", "name": "立場食堂" }, "geometry": { "type": "Point", "coordinates": [ 139.500634150000025, 35.4194901 ] } },
{ "type": "Feature", "properties": { "gid": 21371, "fclass": "restaurant", "name": "料亭柏又" }, "geometry": { "type": "Point", "coordinates": [ 139.159249016342812, 35.248747666757438 ] } },
{ "type": "Feature", "properties": { "gid": 21380, "fclass": "restaurant", "name": "スシロー　調布店" }, "geometry": { "type": "Point", "coordinates": [ 139.553931593424977, 35.681174173332685 ] } },
{ "type": "Feature", "properties": { "gid": 21473, "fclass": "restaurant", "name": "グリーン食堂" }, "geometry": { "type": "Point", "coordinates": [ 139.65040025, 35.5508189 ] } },
{ "type": "Feature", "properties": { "gid": 21563, "fclass": "restaurant", "name": "ココス" }, "geometry": { "type": "Point", "coordinates": [ 139.523322136623875, 35.390803481217489 ] } },
{ "type": "Feature", "properties": { "gid": 21838, "fclass": "restaurant", "name": "近江牛の神谷" }, "geometry": { "type": "Point", "coordinates": [ 139.449015510873778, 35.649460387326037 ] } },
{ "type": "Feature", "properties": { "gid": 21839, "fclass": "restaurant", "name": "しのぶ鮨" }, "geometry": { "type": "Point", "coordinates": [ 139.44653695, 35.64886405 ] } },
{ "type": "Feature", "properties": { "gid": 21861, "fclass": "restaurant", "name": "焼肉松葉" }, "geometry": { "type": "Point", "coordinates": [ 139.49097665, 35.5944418 ] } },
{ "type": "Feature", "properties": { "gid": 21868, "fclass": "restaurant", "name": "まるもり製麺" }, "geometry": { "type": "Point", "coordinates": [ 139.520695080578093, 35.388931436767848 ] } },
{ "type": "Feature", "properties": { "gid": 21872, "fclass": "restaurant", "name": "酒菜肉匠 ふるや" }, "geometry": { "type": "Point", "coordinates": [ 139.529991810274424, 35.402292365479269 ] } },
{ "type": "Feature", "properties": { "gid": 21896, "fclass": "restaurant", "name": "レストランウィステリア" }, "geometry": { "type": "Point", "coordinates": [ 139.521258261481137, 36.315004687467166 ] } },
{ "type": "Feature", "properties": { "gid": 21897, "fclass": "restaurant", "name": null }, "geometry": { "type": "Point", "coordinates": [ 139.520840544185745, 36.314972369425327 ] } },
{ "type": "Feature", "properties": { "gid": 21970, "fclass": "restaurant", "name": "ﾋﾟｯﾂｪﾘｱ馬車道" }, "geometry": { "type": "Point", "coordinates": [ 139.468897327569493, 35.625680978684059 ] } },
{ "type": "Feature", "properties": { "gid": 21975, "fclass": "restaurant", "name": "松屋" }, "geometry": { "type": "Point", "coordinates": [ 139.642430680867818, 35.943400740234722 ] } },
{ "type": "Feature", "properties": { "gid": 21976, "fclass": "restaurant", "name": "御食事処ゆきやなぎ" }, "geometry": { "type": "Point", "coordinates": [ 139.182510607131917, 35.871974232917943 ] } },
{ "type": "Feature", "properties": { "gid": 21978, "fclass": "restaurant", "name": "お休み処やませみ" }, "geometry": { "type": "Point", "coordinates": [ 139.183661080463168, 35.872485084095445 ] } },
{ "type": "Feature", "properties": { "gid": 21996, "fclass": "restaurant", "name": "ジョナサン" }, "geometry": { "type": "Point", "coordinates": [ 139.527678925507558, 35.426287245509116 ] } },
{ "type": "Feature", "properties": { "gid": 21998, "fclass": "restaurant", "name": "サンマルク" }, "geometry": { "type": "Point", "coordinates": [ 139.527061895936924, 35.425765501631631 ] } },
{ "type": "Feature", "properties": { "gid": 21999, "fclass": "restaurant", "name": "せんざん焼肉倶楽部" }, "geometry": { "type": "Point", "coordinates": [ 139.527687720195274, 35.425769394648128 ] } },
{ "type": "Feature", "properties": { "gid": 22000, "fclass": "restaurant", "name": "くるまやラーメン" }, "geometry": { "type": "Point", "coordinates": [ 139.527525621763147, 35.423931429445354 ] } },
{ "type": "Feature", "properties": { "gid": 22002, "fclass": "restaurant", "name": "ガスト" }, "geometry": { "type": "Point", "coordinates": [ 139.530852946027323, 35.423734772437854 ] } },
{ "type": "Feature", "properties": { "gid": 22023, "fclass": "restaurant", "name": "毘沙門茶屋‎" }, "geometry": { "type": "Point", "coordinates": [ 139.650530741880658, 35.142746507661428 ] } },
{ "type": "Feature", "properties": { "gid": 22052, "fclass": "restaurant", "name": "なか卯" }, "geometry": { "type": "Point", "coordinates": [ 140.137108882673573, 36.051423542761512 ] } },
{ "type": "Feature", "properties": { "gid": 22053, "fclass": "restaurant", "name": "つけ麺" }, "geometry": { "type": "Point", "coordinates": [ 140.13722218335792, 36.051485913276686 ] } },
{ "type": "Feature", "properties": { "gid": 22104, "fclass": "restaurant", "name": "デニーズ" }, "geometry": { "type": "Point", "coordinates": [ 139.442495239888075, 35.62469653135966 ] } },
{ "type": "Feature", "properties": { "gid": 22112, "fclass": "restaurant", "name": "和食さと" }, "geometry": { "type": "Point", "coordinates": [ 139.429330850000014, 35.608906 ] } },
{ "type": "Feature", "properties": { "gid": 22114, "fclass": "restaurant", "name": "ガスト" }, "geometry": { "type": "Point", "coordinates": [ 139.426865954045724, 35.608258372714175 ] } },
{ "type": "Feature", "properties": { "gid": 22133, "fclass": "restaurant", "name": "鶏らーめん 極楽鳥" }, "geometry": { "type": "Point", "coordinates": [ 139.643174760731, 35.531233222007167 ] } },
{ "type": "Feature", "properties": { "gid": 22135, "fclass": "restaurant", "name": "ダヤンカフェ" }, "geometry": { "type": "Point", "coordinates": [ 139.202170328795347, 35.617137674603988 ] } },
{ "type": "Feature", "properties": { "gid": 22148, "fclass": "restaurant", "name": null }, "geometry": { "type": "Point", "coordinates": [ 139.32605325, 36.40626295 ] } },
{ "type": "Feature", "properties": { "gid": 22159, "fclass": "restaurant", "name": "かに道楽" }, "geometry": { "type": "Point", "coordinates": [ 139.69952525008938, 35.527542364084923 ] } },
{ "type": "Feature", "properties": { "gid": 22177, "fclass": "restaurant", "name": "すき家" }, "geometry": { "type": "Point", "coordinates": [ 139.623489633487281, 35.853107514101524 ] } },
{ "type": "Feature", "properties": { "gid": 22178, "fclass": "restaurant", "name": "ジョリーパスタ" }, "geometry": { "type": "Point", "coordinates": [ 139.623545654584007, 35.852861548892747 ] } },
{ "type": "Feature", "properties": { "gid": 22191, "fclass": "restaurant", "name": null }, "geometry": { "type": "Point", "coordinates": [ 139.37196317817012, 36.115410625589888 ] } },
{ "type": "Feature", "properties": { "gid": 22202, "fclass": "restaurant", "name": "カウボーイ家族" }, "geometry": { "type": "Point", "coordinates": [ 139.5640918755374, 35.397180154149247 ] } },
{ "type": "Feature", "properties": { "gid": 22203, "fclass": "restaurant", "name": "ガスト" }, "geometry": { "type": "Point", "coordinates": [ 139.565171385056374, 35.3963320791309 ] } },
{ "type": "Feature", "properties": { "gid": 22204, "fclass": "restaurant", "name": "牛庵" }, "geometry": { "type": "Point", "coordinates": [ 139.563536163251399, 35.397521281352894 ] } },
{ "type": "Feature", "properties": { "gid": 22257, "fclass": "restaurant", "name": "ふなじ" }, "geometry": { "type": "Point", "coordinates": [ 138.994740321143468, 36.322542951407137 ] } },
{ "type": "Feature", "properties": { "gid": 22281, "fclass": "restaurant", "name": "天芳" }, "geometry": { "type": "Point", "coordinates": [ 140.502937854874233, 35.895060157321872 ] } },
{ "type": "Feature", "properties": { "gid": 22292, "fclass": "restaurant", "name": "梅の花" }, "geometry": { "type": "Point", "coordinates": [ 139.502093936717984, 35.414748128251048 ] } },
{ "type": "Feature", "properties": { "gid": 22299, "fclass": "restaurant", "name": null }, "geometry": { "type": "Point", "coordinates": [ 139.076126993345213, 36.384064823826499 ] } },
{ "type": "Feature", "properties": { "gid": 22309, "fclass": "restaurant", "name": "すき家" }, "geometry": { "type": "Point", "coordinates": [ 139.06508025, 36.3752473 ] } },
{ "type": "Feature", "properties": { "gid": 22319, "fclass": "restaurant", "name": "ココス" }, "geometry": { "type": "Point", "coordinates": [ 139.500255963514718, 35.409619056145999 ] } },
{ "type": "Feature", "properties": { "gid": 22357, "fclass": "restaurant", "name": null }, "geometry": { "type": "Point", "coordinates": [ 140.28388815, 35.39480875 ] } },
{ "type": "Feature", "properties": { "gid": 22371, "fclass": "restaurant", "name": "和食レストランとんでん 座間店" }, "geometry": { "type": "Point", "coordinates": [ 139.393994718801906, 35.482501465374135 ] } },
{ "type": "Feature", "properties": { "gid": 22372, "fclass": "restaurant", "name": "ガスト" }, "geometry": { "type": "Point", "coordinates": [ 139.560543007140694, 35.818526122329629 ] } },
{ "type": "Feature", "properties": { "gid": 22399, "fclass": "restaurant", "name": null }, "geometry": { "type": "Point", "coordinates": [ 139.728669485275901, 35.636157357847118 ] } },
{ "type": "Feature", "properties": { "gid": 22446, "fclass": "restaurant", "name": "デニーズ" }, "geometry": { "type": "Point", "coordinates": [ 139.66356578807833, 35.579015315655944 ] } },
{ "type": "Feature", "properties": { "gid": 22466, "fclass": "restaurant", "name": "らーめん一代元" }, "geometry": { "type": "Point", "coordinates": [ 139.639088449999974, 35.90791345 ] } },
{ "type": "Feature", "properties": { "gid": 22494, "fclass": "restaurant", "name": "らあめん花月" }, "geometry": { "type": "Point", "coordinates": [ 139.711768130837442, 35.610011216808516 ] } },
{ "type": "Feature", "properties": { "gid": 22495, "fclass": "restaurant", "name": "へのへのもへじ" }, "geometry": { "type": "Point", "coordinates": [ 139.711782399999976, 35.61008235 ] } },
{ "type": "Feature", "properties": { "gid": 22518, "fclass": "restaurant", "name": "ちっきん" }, "geometry": { "type": "Point", "coordinates": [ 139.627897199999978, 35.9063088 ] } },
{ "type": "Feature", "properties": { "gid": 22529, "fclass": "restaurant", "name": "ジャンボおしどり寿司" }, "geometry": { "type": "Point", "coordinates": [ 139.503592309807033, 35.413426246675876 ] } },
{ "type": "Feature", "properties": { "gid": 22530, "fclass": "restaurant", "name": "ステーキガスト" }, "geometry": { "type": "Point", "coordinates": [ 139.504300568077269, 35.412739466580625 ] } },
{ "type": "Feature", "properties": { "gid": 22557, "fclass": "restaurant", "name": "ガスト" }, "geometry": { "type": "Point", "coordinates": [ 139.52399262823829, 35.384164500380734 ] } },
{ "type": "Feature", "properties": { "gid": 22558, "fclass": "restaurant", "name": "かっぱ寿司" }, "geometry": { "type": "Point", "coordinates": [ 139.545283864398016, 35.415821431240481 ] } },
{ "type": "Feature", "properties": { "gid": 22559, "fclass": "restaurant", "name": "玉金" }, "geometry": { "type": "Point", "coordinates": [ 139.811316441696448, 35.694120756046004 ] } },
{ "type": "Feature", "properties": { "gid": 22560, "fclass": "restaurant", "name": null }, "geometry": { "type": "Point", "coordinates": [ 139.812538659011324, 35.69567515023234 ] } },
{ "type": "Feature", "properties": { "gid": 22585, "fclass": "restaurant", "name": "藍屋" }, "geometry": { "type": "Point", "coordinates": [ 139.516242123820405, 35.42800890539791 ] } },
{ "type": "Feature", "properties": { "gid": 22587, "fclass": "restaurant", "name": "バーミヤン" }, "geometry": { "type": "Point", "coordinates": [ 139.502046390180197, 35.428114887344911 ] } },
{ "type": "Feature", "properties": { "gid": 22603, "fclass": "restaurant", "name": "バーミヤン" }, "geometry": { "type": "Point", "coordinates": [ 139.50007500958705, 35.382504228306551 ] } },
{ "type": "Feature", "properties": { "gid": 22606, "fclass": "restaurant", "name": "ロイヤルホスト" }, "geometry": { "type": "Point", "coordinates": [ 139.506233997839985, 35.378078995902953 ] } },
{ "type": "Feature", "properties": { "gid": 22611, "fclass": "restaurant", "name": "イルサッジオ" }, "geometry": { "type": "Point", "coordinates": [ 139.502604134118968, 35.374286435166098 ] } },
{ "type": "Feature", "properties": { "gid": 22645, "fclass": "restaurant", "name": "角べい" }, "geometry": { "type": "Point", "coordinates": [ 139.63989549766913, 35.91074433450909 ] } },
{ "type": "Feature", "properties": { "gid": 22721, "fclass": "restaurant", "name": "二八そば ひらい" }, "geometry": { "type": "Point", "coordinates": [ 139.112250526887465, 36.015435569547471 ] } },
{ "type": "Feature", "properties": { "gid": 22783, "fclass": "restaurant", "name": "夢庵" }, "geometry": { "type": "Point", "coordinates": [ 139.574343442112365, 35.402507581828644 ] } },
{ "type": "Feature", "properties": { "gid": 22872, "fclass": "restaurant", "name": "ヴォーノ・イタリア 小平店" }, "geometry": { "type": "Point", "coordinates": [ 139.49145688472143, 35.716800423707625 ] } },
{ "type": "Feature", "properties": { "gid": 22884, "fclass": "restaurant", "name": "大進" }, "geometry": { "type": "Point", "coordinates": [ 140.572137538254992, 36.314616167862823 ] } },
{ "type": "Feature", "properties": { "gid": 22894, "fclass": "restaurant", "name": "割烹 寿し かま屋" }, "geometry": { "type": "Point", "coordinates": [ 140.575014418544953, 36.314733694756491 ] } },
{ "type": "Feature", "properties": { "gid": 22908, "fclass": "restaurant", "name": "藍屋" }, "geometry": { "type": "Point", "coordinates": [ 139.634761632785228, 35.92207582614305 ] } },
{ "type": "Feature", "properties": { "gid": 22911, "fclass": "restaurant", "name": null }, "geometry": { "type": "Point", "coordinates": [ 139.461769452309312, 35.476080942647258 ] } },
{ "type": "Feature", "properties": { "gid": 22980, "fclass": "restaurant", "name": "大宮 禅味 はすみ" }, "geometry": { "type": "Point", "coordinates": [ 139.614515533929108, 35.902070554780799 ] } },
{ "type": "Feature", "properties": { "gid": 23017, "fclass": "restaurant", "name": "こなひきじじい" }, "geometry": { "type": "Point", "coordinates": [ 139.531571575896862, 35.399229211878598 ] } },
{ "type": "Feature", "properties": { "gid": 23060, "fclass": "restaurant", "name": "山茂登" },